[
  {
    "city": "Trindade",
    "city_ascii": "Trindade",
    "lat": 0.3,
    "lng": 6.6833,
    "country": "Sao Tome and Principe",
    "iso2": "ST",
    "iso3": "STP",
    "admin_name": "Mé-Zóchi",
    "capital": "admin",
    "population": 6636,
    "id": 1678096936
  },
  {
    "city": "Ros Comáin",
    "city_ascii": "Ros Comain",
    "lat": 53.6333,
    "lng": -8.1833,
    "country": "Ireland",
    "iso2": "IE",
    "iso3": "IRL",
    "admin_name": "Roscommon",
    "capital": "admin",
    "population": 6555,
    "id": 1372870384
  },
  {
    "city": "Kerema",
    "city_ascii": "Kerema",
    "lat": -7.9667,
    "lng": 145.7667,
    "country": "Papua New Guinea",
    "iso2": "PG",
    "iso3": "PNG",
    "admin_name": "Gulf",
    "capital": "admin",
    "population": 6551,
    "id": 1598925932
  },
  {
    "city": "Bogatić",
    "city_ascii": "Bogatic",
    "lat": 44.8333,
    "lng": 19.4833,
    "country": "Serbia",
    "iso2": "RS",
    "iso3": "SRB",
    "admin_name": "Bogatić",
    "capital": "admin",
    "population": 6488,
    "id": 1688635508
  },
  {
    "city": "Zouar",
    "city_ascii": "Zouar",
    "lat": 20.45,
    "lng": 16.5167,
    "country": "Chad",
    "iso2": "TD",
    "iso3": "TCD",
    "admin_name": "Tibesti",
    "capital": "",
    "population": 6432,
    "id": 1148690803
  },
  {
    "city": "Pasvalys",
    "city_ascii": "Pasvalys",
    "lat": 56.0594,
    "lng": 24.4036,
    "country": "Lithuania",
    "iso2": "LT",
    "iso3": "LTU",
    "admin_name": "Pasvalys",
    "capital": "admin",
    "population": 6411,
    "id": 1440957197
  },
  {
    "city": "Siteki",
    "city_ascii": "Siteki",
    "lat": -26.45,
    "lng": 31.95,
    "country": "Eswatini",
    "iso2": "SZ",
    "iso3": "SWZ",
    "admin_name": "Lubombo",
    "capital": "admin",
    "population": 6381,
    "id": 1748933140
  },
  {
    "city": "Medveđa",
    "city_ascii": "Medveda",
    "lat": 42.8431,
    "lng": 21.5847,
    "country": "Serbia",
    "iso2": "RS",
    "iso3": "SRB",
    "admin_name": "Medveđa",
    "capital": "admin",
    "population": 6360,
    "id": 1688014462
  },
  {
    "city": "Sal Rei",
    "city_ascii": "Sal Rei",
    "lat": 16.177,
    "lng": -22.918,
    "country": "Cabo Verde",
    "iso2": "CV",
    "iso3": "CPV",
    "admin_name": "Boa Vista",
    "capital": "admin",
    "population": 6357,
    "id": 1132420232
  },
  {
    "city": "Lorengau",
    "city_ascii": "Lorengau",
    "lat": -2.0306,
    "lng": 147.2722,
    "country": "Papua New Guinea",
    "iso2": "PG",
    "iso3": "PNG",
    "admin_name": "Manus",
    "capital": "admin",
    "population": 6313,
    "id": 1598571197
  },
  {
    "city": "Alūksne",
    "city_ascii": "Aluksne",
    "lat": 57.4167,
    "lng": 27.05,
    "country": "Latvia",
    "iso2": "LV",
    "iso3": "LVA",
    "admin_name": "Alūksne",
    "capital": "admin",
    "population": 6262,
    "id": 1428873095
  },
  {
    "city": "Punakha",
    "city_ascii": "Punakha",
    "lat": 27.5833,
    "lng": 89.8583,
    "country": "Bhutan",
    "iso2": "BT",
    "iso3": "BTN",
    "admin_name": "Punakha",
    "capital": "admin",
    "population": 6262,
    "id": 1064171188
  },
  {
    "city": "Jakar",
    "city_ascii": "Jakar",
    "lat": 27.55,
    "lng": 90.7333,
    "country": "Bhutan",
    "iso2": "BT",
    "iso3": "BTN",
    "admin_name": "Bumthang",
    "capital": "admin",
    "population": 6243,
    "id": 1064194738
  },
  {
    "city": "Phalombe",
    "city_ascii": "Phalombe",
    "lat": -15.8033,
    "lng": 35.6533,
    "country": "Malawi",
    "iso2": "MW",
    "iso3": "MWI",
    "admin_name": "Phalombe",
    "capital": "admin",
    "population": 6242,
    "id": 1454510180
  },
  {
    "city": "Kavadarci",
    "city_ascii": "Kavadarci",
    "lat": 41.4328,
    "lng": 22.0117,
    "country": "North Macedonia",
    "iso2": "MK",
    "iso3": "MKD",
    "admin_name": "Kavadarci",
    "capital": "admin",
    "population": 6228,
    "id": 1807183974
  },
  {
    "city": "Palikir",
    "city_ascii": "Palikir",
    "lat": 6.9172,
    "lng": 158.1589,
    "country": "Micronesia, Federated States of",
    "iso2": "FM",
    "iso3": "FSM",
    "admin_name": "Pohnpei",
    "capital": "primary",
    "population": 6227,
    "id": 1583008885
  },
  {
    "city": "Ub",
    "city_ascii": "Ub",
    "lat": 44.4561,
    "lng": 20.0739,
    "country": "Serbia",
    "iso2": "RS",
    "iso3": "SRB",
    "admin_name": "Ub",
    "capital": "admin",
    "population": 6191,
    "id": 1688701954
  },
  {
    "city": "Kupiškis",
    "city_ascii": "Kupiskis",
    "lat": 55.8333,
    "lng": 24.9667,
    "country": "Lithuania",
    "iso2": "LT",
    "iso3": "LTU",
    "admin_name": "Kupiškis",
    "capital": "admin",
    "population": 6178,
    "id": 1440122297
  },
  {
    "city": "Espargos",
    "city_ascii": "Espargos",
    "lat": 16.756,
    "lng": -22.946,
    "country": "Cabo Verde",
    "iso2": "CV",
    "iso3": "CPV",
    "admin_name": "Sal",
    "capital": "admin",
    "population": 6173,
    "id": 1132760152
  },
  {
    "city": "Mengeš",
    "city_ascii": "Menges",
    "lat": 46.1626,
    "lng": 14.568,
    "country": "Slovenia",
    "iso2": "SI",
    "iso3": "SVN",
    "admin_name": "Mengeš",
    "capital": "admin",
    "population": 6119,
    "id": 1705274788
  },
  {
    "city": "Bač",
    "city_ascii": "Bac",
    "lat": 45.3833,
    "lng": 19.2333,
    "country": "Serbia",
    "iso2": "RS",
    "iso3": "SRB",
    "admin_name": "Bač",
    "capital": "admin",
    "population": 6087,
    "id": 1688168992
  },
  {
    "city": "Junik",
    "city_ascii": "Junik",
    "lat": 42.4761,
    "lng": 20.2775,
    "country": "Kosovo",
    "iso2": "XK",
    "iso3": "XKS",
    "admin_name": "Junik",
    "capital": "admin",
    "population": 6084,
    "id": 1901930204
  },
  {
    "city": "Viqueque",
    "city_ascii": "Viqueque",
    "lat": -8.85,
    "lng": 126.3667,
    "country": "Timor-Leste",
    "iso2": "TL",
    "iso3": "TLS",
    "admin_name": "Viqueque",
    "capital": "admin",
    "population": 6078,
    "id": 1626768340
  },
  {
    "city": "Cəbrayıl",
    "city_ascii": "Cabrayil",
    "lat": 39.4,
    "lng": 47.0261,
    "country": "Azerbaijan",
    "iso2": "AZ",
    "iso3": "AZE",
    "admin_name": "Cəbrayıl",
    "capital": "admin",
    "population": 6070,
    "id": 1031379235
  },
  {
    "city": "Sežana",
    "city_ascii": "Sezana",
    "lat": 45.7034,
    "lng": 13.8706,
    "country": "Slovenia",
    "iso2": "SI",
    "iso3": "SVN",
    "admin_name": "Sežana",
    "capital": "admin",
    "population": 6037,
    "id": 1705079549
  },
  {
    "city": "Funafuti",
    "city_ascii": "Funafuti",
    "lat": -8.5167,
    "lng": 179.2,
    "country": "Tuvalu",
    "iso2": "TV",
    "iso3": "TUV",
    "admin_name": "Funafuti",
    "capital": "primary",
    "population": 6025,
    "id": 1798251391
  },
  {
    "city": "Zagorje",
    "city_ascii": "Zagorje",
    "lat": 46.1342,
    "lng": 14.9942,
    "country": "Slovenia",
    "iso2": "SI",
    "iso3": "SVN",
    "admin_name": "Zagorje ob Savi",
    "capital": "admin",
    "population": 6023,
    "id": 1705942287
  },
  {
    "city": "Lucea",
    "city_ascii": "Lucea",
    "lat": 18.45,
    "lng": -78.1833,
    "country": "Jamaica",
    "iso2": "JM",
    "iso3": "JAM",
    "admin_name": "Hanover",
    "capital": "admin",
    "population": 6002,
    "id": 1388423676
  },
  {
    "city": "Mitoma",
    "city_ascii": "Mitoma",
    "lat": -0.615,
    "lng": 30.045,
    "country": "Uganda",
    "iso2": "UG",
    "iso3": "UGA",
    "admin_name": "Mitooma",
    "capital": "admin",
    "population": 6000,
    "id": 1800173507
  },
  {
    "city": "Schaan",
    "city_ascii": "Schaan",
    "lat": 47.1667,
    "lng": 9.5097,
    "country": "Liechtenstein",
    "iso2": "LI",
    "iso3": "LIE",
    "admin_name": "Schaan",
    "capital": "admin",
    "population": 5998,
    "id": 1438982330
  },
  {
    "city": "Glarus",
    "city_ascii": "Glarus",
    "lat": 47.0333,
    "lng": 9.0667,
    "country": "Switzerland",
    "iso2": "CH",
    "iso3": "CHE",
    "admin_name": "Glarus",
    "capital": "admin",
    "population": 5996,
    "id": 1756095767
  },
  {
    "city": "Radovljica",
    "city_ascii": "Radovljica",
    "lat": 46.3425,
    "lng": 14.1721,
    "country": "Slovenia",
    "iso2": "SI",
    "iso3": "SVN",
    "admin_name": "Radovljica",
    "capital": "admin",
    "population": 5981,
    "id": 1705488511
  },
  {
    "city": "Preiļi",
    "city_ascii": "Preili",
    "lat": 56.3,
    "lng": 26.7167,
    "country": "Latvia",
    "iso2": "LV",
    "iso3": "LVA",
    "admin_name": "Preiļi",
    "capital": "admin",
    "population": 5952,
    "id": 1428460035
  },
  {
    "city": "Luqa",
    "city_ascii": "Luqa",
    "lat": 35.8597,
    "lng": 14.4892,
    "country": "Malta",
    "iso2": "MT",
    "iso3": "MLT",
    "admin_name": "Luqa",
    "capital": "admin",
    "population": 5945,
    "id": 1470901810
  },
  {
    "city": "Zarasai",
    "city_ascii": "Zarasai",
    "lat": 55.7333,
    "lng": 26.25,
    "country": "Lithuania",
    "iso2": "LT",
    "iso3": "LTU",
    "admin_name": "Zarasai",
    "capital": "admin",
    "population": 5942,
    "id": 1440450872
  },
  {
    "city": "Şoldăneşti",
    "city_ascii": "Soldanesti",
    "lat": 47.8167,
    "lng": 28.8,
    "country": "Moldova",
    "iso2": "MD",
    "iso3": "MDA",
    "admin_name": "Şoldăneşti",
    "capital": "admin",
    "population": 5883,
    "id": 1498087659
  },
  {
    "city": "Echternach",
    "city_ascii": "Echternach",
    "lat": 49.8117,
    "lng": 6.4217,
    "country": "Luxembourg",
    "iso2": "LU",
    "iso3": "LUX",
    "admin_name": "Echternach",
    "capital": "admin",
    "population": 5870,
    "id": 1442794725
  },
  {
    "city": "Rutana",
    "city_ascii": "Rutana",
    "lat": -3.9167,
    "lng": 30,
    "country": "Burundi",
    "iso2": "BI",
    "iso3": "BDI",
    "admin_name": "Rutana",
    "capital": "admin",
    "population": 5865,
    "id": 1108441253
  },
  {
    "city": "Berovo",
    "city_ascii": "Berovo",
    "lat": 41.7078,
    "lng": 22.8564,
    "country": "North Macedonia",
    "iso2": "MK",
    "iso3": "MKD",
    "admin_name": "Berovo",
    "capital": "admin",
    "population": 5850,
    "id": 1807873177
  },
  {
    "city": "Idrija",
    "city_ascii": "Idrija",
    "lat": 46.0025,
    "lng": 14.0275,
    "country": "Slovenia",
    "iso2": "SI",
    "iso3": "SVN",
    "admin_name": "Idrija",
    "capital": "admin",
    "population": 5848,
    "id": 1705472042
  },
  {
    "city": "Širvintos",
    "city_ascii": "Sirvintos",
    "lat": 55.0361,
    "lng": 24.9694,
    "country": "Lithuania",
    "iso2": "LT",
    "iso3": "LTU",
    "admin_name": "Širvintos",
    "capital": "admin",
    "population": 5802,
    "id": 1440054141
  },
  {
    "city": "Ranillug",
    "city_ascii": "Ranillug",
    "lat": 42.492,
    "lng": 21.559,
    "country": "Kosovo",
    "iso2": "XK",
    "iso3": "XKS",
    "admin_name": "Ranillug",
    "capital": "admin",
    "population": 5800,
    "id": 1901029901
  },
  {
    "city": "Molėtai",
    "city_ascii": "Moletai",
    "lat": 55.2333,
    "lng": 25.4167,
    "country": "Lithuania",
    "iso2": "LT",
    "iso3": "LTU",
    "admin_name": "Molėtai",
    "capital": "admin",
    "population": 5783,
    "id": 1440110307
  },
  {
    "city": "Appenzell",
    "city_ascii": "Appenzell",
    "lat": 47.3333,
    "lng": 9.4167,
    "country": "Switzerland",
    "iso2": "CH",
    "iso3": "CHE",
    "admin_name": "Appenzell Innerrhoden",
    "capital": "admin",
    "population": 5750,
    "id": 1756770881
  },
  {
    "city": "Xocavənd",
    "city_ascii": "Xocavand",
    "lat": 39.7953,
    "lng": 47.1131,
    "country": "Azerbaijan",
    "iso2": "AZ",
    "iso3": "AZE",
    "admin_name": "Xocavənd",
    "capital": "admin",
    "population": 5700,
    "id": 1031454735
  },
  {
    "city": "Vaduz",
    "city_ascii": "Vaduz",
    "lat": 47.141,
    "lng": 9.521,
    "country": "Liechtenstein",
    "iso2": "LI",
    "iso3": "LIE",
    "admin_name": "Vaduz",
    "capital": "primary",
    "population": 5696,
    "id": 1438317747
  },
  {
    "city": "Balvi",
    "city_ascii": "Balvi",
    "lat": 57.1333,
    "lng": 27.25,
    "country": "Latvia",
    "iso2": "LV",
    "iso3": "LVA",
    "admin_name": "Balvi",
    "capital": "admin",
    "population": 5672,
    "id": 1428606162
  },
  {
    "city": "Sisimiut",
    "city_ascii": "Sisimiut",
    "lat": 66.9389,
    "lng": -53.6722,
    "country": "Greenland",
    "iso2": "GL",
    "iso3": "GRL",
    "admin_name": "Qeqqata",
    "capital": "admin",
    "population": 5582,
    "id": 1304160154
  },
  {
    "city": "Põlva",
    "city_ascii": "Polva",
    "lat": 58.0536,
    "lng": 27.0556,
    "country": "Estonia",
    "iso2": "EE",
    "iso3": "EST",
    "admin_name": "Põlva",
    "capital": "admin",
    "population": 5535,
    "id": 1233866730
  },
  {
    "city": "Mamushë",
    "city_ascii": "Mamushe",
    "lat": 42.3167,
    "lng": 20.7167,
    "country": "Kosovo",
    "iso2": "XK",
    "iso3": "XKS",
    "admin_name": "Mamushë",
    "capital": "admin",
    "population": 5507,
    "id": 1901042958
  }
]