[
  {
    "city": "Wangdue Phodrang",
    "city_ascii": "Wangdue Phodrang",
    "lat": 27.4833,
    "lng": 89.9,
    "country": "Bhutan",
    "iso2": "BT",
    "iso3": "BTN",
    "admin_name": "Wangdue Phodrang",
    "capital": "admin",
    "population": 8954,
    "id": 1064353953
  },
  {
    "city": "Tshabong",
    "city_ascii": "Tshabong",
    "lat": -26.02,
    "lng": 22.4056,
    "country": "Botswana",
    "iso2": "BW",
    "iso3": "BWA",
    "admin_name": "Kgalagadi",
    "capital": "admin",
    "population": 8939,
    "id": 1072830877
  },
  {
    "city": "Amuria",
    "city_ascii": "Amuria",
    "lat": 2.03,
    "lng": 33.6431,
    "country": "Uganda",
    "iso2": "UG",
    "iso3": "UGA",
    "admin_name": "Amuria",
    "capital": "admin",
    "population": 8900,
    "id": 1800838006
  },
  {
    "city": "Prienai",
    "city_ascii": "Prienai",
    "lat": 54.6333,
    "lng": 23.9417,
    "country": "Lithuania",
    "iso2": "LT",
    "iso3": "LTU",
    "admin_name": "Prienai",
    "capital": "admin",
    "population": 8894,
    "id": 1440412268
  },
  {
    "city": "Rio Claro",
    "city_ascii": "Rio Claro",
    "lat": 10.3042,
    "lng": -61.1708,
    "country": "Trinidad and Tobago",
    "iso2": "TT",
    "iso3": "TTO",
    "admin_name": "Mayaro/Rio Claro",
    "capital": "admin",
    "population": 8881,
    "id": 1780883666
  },
  {
    "city": "Qızılhacılı",
    "city_ascii": "Qizilhacili",
    "lat": 40.5808,
    "lng": 46.8503,
    "country": "Azerbaijan",
    "iso2": "AZ",
    "iso3": "AZE",
    "admin_name": "Goranboy",
    "capital": "",
    "population": 8830,
    "id": 1031235526
  },
  {
    "city": "Mokhotlong",
    "city_ascii": "Mokhotlong",
    "lat": -29.2885,
    "lng": 29.0656,
    "country": "Lesotho",
    "iso2": "LS",
    "iso3": "LSO",
    "admin_name": "Mokhotlong",
    "capital": "admin",
    "population": 8809,
    "id": 1426785819
  },
  {
    "city": "Sremski Karlovci",
    "city_ascii": "Sremski Karlovci",
    "lat": 45.2,
    "lng": 19.9333,
    "country": "Serbia",
    "iso2": "RS",
    "iso3": "SRB",
    "admin_name": "Sremski Karlovci",
    "capital": "admin",
    "population": 8750,
    "id": 1688215764
  },
  {
    "city": "Koror",
    "city_ascii": "Koror",
    "lat": 7.3419,
    "lng": 134.4792,
    "country": "Palau",
    "iso2": "PW",
    "iso3": "PLW",
    "admin_name": "Koror",
    "capital": "",
    "population": 8744,
    "id": 1585174728
  },
  {
    "city": "Siġġiewi",
    "city_ascii": "Siggiewi",
    "lat": 35.8542,
    "lng": 14.4383,
    "country": "Malta",
    "iso2": "MT",
    "iso3": "MLT",
    "admin_name": "Siġġiewi",
    "capital": "admin",
    "population": 8721,
    "id": 1470181462
  },
  {
    "city": "Talsi",
    "city_ascii": "Talsi",
    "lat": 57.2444,
    "lng": 22.5867,
    "country": "Latvia",
    "iso2": "LV",
    "iso3": "LVA",
    "admin_name": "Talsi",
    "capital": "admin",
    "population": 8712,
    "id": 1428411666
  },
  {
    "city": "Paola",
    "city_ascii": "Paola",
    "lat": 35.8728,
    "lng": 14.5075,
    "country": "Malta",
    "iso2": "MT",
    "iso3": "MLT",
    "admin_name": "Paola",
    "capital": "admin",
    "population": 8706,
    "id": 1470416994
  },
  {
    "city": "Bududa",
    "city_ascii": "Bududa",
    "lat": 1.01,
    "lng": 34.3317,
    "country": "Uganda",
    "iso2": "UG",
    "iso3": "UGA",
    "admin_name": "Bududa",
    "capital": "admin",
    "population": 8700,
    "id": 1800970850
  },
  {
    "city": "Glodeni",
    "city_ascii": "Glodeni",
    "lat": 47.7667,
    "lng": 27.5167,
    "country": "Moldova",
    "iso2": "MD",
    "iso3": "MDA",
    "admin_name": "Glodeni",
    "capital": "admin",
    "population": 8676,
    "id": 1498553213
  },
  {
    "city": "Dobele",
    "city_ascii": "Dobele",
    "lat": 56.6167,
    "lng": 23.2667,
    "country": "Latvia",
    "iso2": "LV",
    "iso3": "LVA",
    "admin_name": "Dobele",
    "capital": "admin",
    "population": 8644,
    "id": 1428641580
  },
  {
    "city": "Anykščiai",
    "city_ascii": "Anyksciai",
    "lat": 55.5333,
    "lng": 25.1,
    "country": "Lithuania",
    "iso2": "LT",
    "iso3": "LTU",
    "admin_name": "Anykščiai",
    "capital": "admin",
    "population": 8638,
    "id": 1440174702
  },
  {
    "city": "Vinica",
    "city_ascii": "Vinica",
    "lat": 41.8828,
    "lng": 22.5092,
    "country": "North Macedonia",
    "iso2": "MK",
    "iso3": "MKD",
    "admin_name": "Vinica",
    "capital": "admin",
    "population": 8584,
    "id": 1807665568
  },
  {
    "city": "Tarxien",
    "city_ascii": "Tarxien",
    "lat": 35.8658,
    "lng": 14.5119,
    "country": "Malta",
    "iso2": "MT",
    "iso3": "MLT",
    "admin_name": "Tarxien",
    "capital": "admin",
    "population": 8583,
    "id": 1470230507
  },
  {
    "city": "Buba",
    "city_ascii": "Buba",
    "lat": 11.5833,
    "lng": -15,
    "country": "Guinea-Bissau",
    "iso2": "GW",
    "iso3": "GNB",
    "admin_name": "Quinara",
    "capital": "admin",
    "population": 8556,
    "id": 1624903078
  },
  {
    "city": "Ḩadībū",
    "city_ascii": "Hadibu",
    "lat": 12.65,
    "lng": 54.0167,
    "country": "Yemen",
    "iso2": "YE",
    "iso3": "YEM",
    "admin_name": "Arkhabīl Suquţrá",
    "capital": "admin",
    "population": 8545,
    "id": 1887452377
  },
  {
    "city": "Imsida",
    "city_ascii": "Imsida",
    "lat": 35.8978,
    "lng": 14.4894,
    "country": "Malta",
    "iso2": "MT",
    "iso3": "MLT",
    "admin_name": "Imsida",
    "capital": "admin",
    "population": 8545,
    "id": 1470395922
  },
  {
    "city": "Bartica",
    "city_ascii": "Bartica",
    "lat": 6.4,
    "lng": -58.6167,
    "country": "Guyana",
    "iso2": "GY",
    "iso3": "GUY",
    "admin_name": "Cuyuni-Mazaruni",
    "capital": "admin",
    "population": 8532,
    "id": 1328806426
  },
  {
    "city": "Basarabeasca",
    "city_ascii": "Basarabeasca",
    "lat": 46.3336,
    "lng": 28.9614,
    "country": "Moldova",
    "iso2": "MD",
    "iso3": "MDA",
    "admin_name": "Basarabeasca",
    "capital": "admin",
    "population": 8471,
    "id": 1498894118
  },
  {
    "city": "Joniškis",
    "city_ascii": "Joniskis",
    "lat": 56.2333,
    "lng": 23.6,
    "country": "Lithuania",
    "iso2": "LT",
    "iso3": "LTU",
    "admin_name": "Joniškis",
    "capital": "admin",
    "population": 8466,
    "id": 1440592411
  },
  {
    "city": "Zərdab",
    "city_ascii": "Zardab",
    "lat": 40.2183,
    "lng": 47.7083,
    "country": "Azerbaijan",
    "iso2": "AZ",
    "iso3": "AZE",
    "admin_name": "Zərdab",
    "capital": "admin",
    "population": 8450,
    "id": 1031852579
  },
  {
    "city": "Jesenice",
    "city_ascii": "Jesenice",
    "lat": 46.4366,
    "lng": 14.0602,
    "country": "Slovenia",
    "iso2": "SI",
    "iso3": "SVN",
    "admin_name": "Jesenice",
    "capital": "admin",
    "population": 8399,
    "id": 1705471403
  },
  {
    "city": "Stans",
    "city_ascii": "Stans",
    "lat": 46.95,
    "lng": 8.35,
    "country": "Switzerland",
    "iso2": "CH",
    "iso3": "CHE",
    "admin_name": "Nidwalden",
    "capital": "admin",
    "population": 8393,
    "id": 1756019042
  },
  {
    "city": "Gadžin Han",
    "city_ascii": "Gadzin Han",
    "lat": 43.2228,
    "lng": 22.0322,
    "country": "Serbia",
    "iso2": "RS",
    "iso3": "SRB",
    "admin_name": "Gadžin Han",
    "capital": "admin",
    "population": 8389,
    "id": 1688569895
  },
  {
    "city": "Kaišiadorys",
    "city_ascii": "Kaisiadorys",
    "lat": 54.8667,
    "lng": 24.45,
    "country": "Lithuania",
    "iso2": "LT",
    "iso3": "LTU",
    "admin_name": "Kaišiadorys",
    "capital": "admin",
    "population": 8334,
    "id": 1440257941
  },
  {
    "city": "Golubac",
    "city_ascii": "Golubac",
    "lat": 44.65,
    "lng": 21.6333,
    "country": "Serbia",
    "iso2": "RS",
    "iso3": "SRB",
    "admin_name": "Golubac",
    "capital": "admin",
    "population": 8331,
    "id": 1688460377
  },
  {
    "city": "Moengo",
    "city_ascii": "Moengo",
    "lat": 5.6167,
    "lng": -54.4,
    "country": "Suriname",
    "iso2": "SR",
    "iso3": "SUR",
    "admin_name": "Marowijne",
    "capital": "",
    "population": 8252,
    "id": 1740230194
  },
  {
    "city": "Slovenska Bistrica",
    "city_ascii": "Slovenska Bistrica",
    "lat": 46.3903,
    "lng": 15.575,
    "country": "Slovenia",
    "iso2": "SI",
    "iso3": "SVN",
    "admin_name": "Slovenska Bistrica",
    "capital": "admin",
    "population": 8219,
    "id": 1705359875
  },
  {
    "city": "Rubirizi",
    "city_ascii": "Rubirizi",
    "lat": -0.2661,
    "lng": 30.1069,
    "country": "Uganda",
    "iso2": "UG",
    "iso3": "UGA",
    "admin_name": "Rubirizi",
    "capital": "admin",
    "population": 8204,
    "id": 1800947890
  },
  {
    "city": "Naujoji Akmenė",
    "city_ascii": "Naujoji Akmene",
    "lat": 56.3167,
    "lng": 22.9,
    "country": "Lithuania",
    "iso2": "LT",
    "iso3": "LTU",
    "admin_name": "Akmenė",
    "capital": "admin",
    "population": 8170,
    "id": 1440899932
  },
  {
    "city": "Kočevje",
    "city_ascii": "Kocevje",
    "lat": 45.643,
    "lng": 14.8594,
    "country": "Slovenia",
    "iso2": "SI",
    "iso3": "SVN",
    "admin_name": "Kočevje",
    "capital": "admin",
    "population": 8151,
    "id": 1705859832
  },
  {
    "city": "Koné",
    "city_ascii": "Kone",
    "lat": -21.059,
    "lng": 164.8518,
    "country": "New Caledonia",
    "iso2": "NC",
    "iso3": "NCL",
    "admin_name": "Province Nord",
    "capital": "admin",
    "population": 8144,
    "id": 1540397627
  },
  {
    "city": "Gleno",
    "city_ascii": "Gleno",
    "lat": -8.7239,
    "lng": 125.4361,
    "country": "Timor-Leste",
    "iso2": "TL",
    "iso3": "TLS",
    "admin_name": "Ermera",
    "capital": "admin",
    "population": 8133,
    "id": 1626143485
  },
  {
    "city": "Paide",
    "city_ascii": "Paide",
    "lat": 58.8833,
    "lng": 25.5572,
    "country": "Estonia",
    "iso2": "EE",
    "iso3": "EST",
    "admin_name": "Paide",
    "capital": "admin",
    "population": 8081,
    "id": 1233393684
  },
  {
    "city": "Beočin",
    "city_ascii": "Beocin",
    "lat": 45.2,
    "lng": 19.7333,
    "country": "Serbia",
    "iso2": "RS",
    "iso3": "SRB",
    "admin_name": "Beočin",
    "capital": "admin",
    "population": 8058,
    "id": 1688152997
  },
  {
    "city": "Dimitrovgrad",
    "city_ascii": "Dimitrovgrad",
    "lat": 43.0167,
    "lng": 22.7833,
    "country": "Serbia",
    "iso2": "RS",
    "iso3": "SRB",
    "admin_name": "Dimitrovgrad",
    "capital": "admin",
    "population": 8043,
    "id": 1688139023
  },
  {
    "city": "Varėna",
    "city_ascii": "Varena",
    "lat": 54.2111,
    "lng": 24.5722,
    "country": "Lithuania",
    "iso2": "LT",
    "iso3": "LTU",
    "admin_name": "Varėna",
    "capital": "admin",
    "population": 8042,
    "id": 1440933251
  },
  {
    "city": "Gżira",
    "city_ascii": "Gzira",
    "lat": 35.905,
    "lng": 14.4944,
    "country": "Malta",
    "iso2": "MT",
    "iso3": "MLT",
    "admin_name": "Gżira",
    "capital": "admin",
    "population": 8029,
    "id": 1470739045
  },
  {
    "city": "Nisporeni",
    "city_ascii": "Nisporeni",
    "lat": 47.0833,
    "lng": 28.1833,
    "country": "Moldova",
    "iso2": "MD",
    "iso3": "MDA",
    "admin_name": "Nisporeni",
    "capital": "admin",
    "population": 7986,
    "id": 1498953988
  },
  {
    "city": "Sokobanja",
    "city_ascii": "Sokobanja",
    "lat": 43.65,
    "lng": 21.8667,
    "country": "Serbia",
    "iso2": "RS",
    "iso3": "SRB",
    "admin_name": "Sokobanja",
    "capital": "admin",
    "population": 7982,
    "id": 1688282797
  },
  {
    "city": "Port Maria",
    "city_ascii": "Port Maria",
    "lat": 18.3702,
    "lng": -76.8903,
    "country": "Jamaica",
    "iso2": "JM",
    "iso3": "JAM",
    "admin_name": "Saint Mary",
    "capital": "admin",
    "population": 7906,
    "id": 1388155945
  },
  {
    "city": "Alebtong",
    "city_ascii": "Alebtong",
    "lat": 2.25,
    "lng": 33.315,
    "country": "Uganda",
    "iso2": "UG",
    "iso3": "UGA",
    "admin_name": "Alebtong",
    "capital": "admin",
    "population": 7900,
    "id": 1800244501
  },
  {
    "city": "Monaghan",
    "city_ascii": "Monaghan",
    "lat": 54.2478,
    "lng": -6.9708,
    "country": "Ireland",
    "iso2": "IE",
    "iso3": "IRL",
    "admin_name": "Monaghan",
    "capital": "admin",
    "population": 7894,
    "id": 1372399438
  },
  {
    "city": "Auki",
    "city_ascii": "Auki",
    "lat": -8.7667,
    "lng": 160.7,
    "country": "Solomon Islands",
    "iso2": "SB",
    "iso3": "SLB",
    "admin_name": "Malaita",
    "capital": "admin",
    "population": 7882,
    "id": 1090993143
  },
  {
    "city": "Sembabule",
    "city_ascii": "Sembabule",
    "lat": -0.08,
    "lng": 31.46,
    "country": "Uganda",
    "iso2": "UG",
    "iso3": "UGA",
    "admin_name": "Sembabule",
    "capital": "admin",
    "population": 7800,
    "id": 1800497536
  },
  {
    "city": "Falmouth",
    "city_ascii": "Falmouth",
    "lat": 18.49,
    "lng": -77.661,
    "country": "Jamaica",
    "iso2": "JM",
    "iso3": "JAM",
    "admin_name": "Trelawny",
    "capital": "admin",
    "population": 7779,
    "id": 1388625979
  }
]