[
  {
    "city": "Ribnica",
    "city_ascii": "Ribnica",
    "lat": 46.5372,
    "lng": 15.2733,
    "country": "Slovenia",
    "iso2": "SI",
    "iso3": "SVN",
    "admin_name": "Ribnica na Pohorju",
    "capital": "admin",
    "population": 404,
    "id": 1705830999
  },
  {
    "city": "Luče",
    "city_ascii": "Luce",
    "lat": 46.3565,
    "lng": 14.7436,
    "country": "Slovenia",
    "iso2": "SI",
    "iso3": "SVN",
    "admin_name": "Luče",
    "capital": "admin",
    "population": 402,
    "id": 1705042629
  },
  {
    "city": "Šalovci",
    "city_ascii": "Salovci",
    "lat": 46.825,
    "lng": 16.2981,
    "country": "Slovenia",
    "iso2": "SI",
    "iso3": "SVN",
    "admin_name": "Šalovci",
    "capital": "admin",
    "population": 392,
    "id": 1705296581
  },
  {
    "city": "Brades",
    "city_ascii": "Brades",
    "lat": 16.7928,
    "lng": -62.2106,
    "country": "Montserrat",
    "iso2": "MS",
    "iso3": "MSR",
    "admin_name": "Saint Peter",
    "capital": "primary",
    "population": 391,
    "id": 1500971198
  },
  {
    "city": "Juršinci",
    "city_ascii": "Jursinci",
    "lat": 46.4853,
    "lng": 15.971,
    "country": "Slovenia",
    "iso2": "SI",
    "iso3": "SVN",
    "admin_name": "Juršinci",
    "capital": "admin",
    "population": 381,
    "id": 1705262198
  },
  {
    "city": "Podlehnik",
    "city_ascii": "Podlehnik",
    "lat": 46.3361,
    "lng": 15.8786,
    "country": "Slovenia",
    "iso2": "SI",
    "iso3": "SVN",
    "admin_name": "Podlehnik",
    "capital": "admin",
    "population": 378,
    "id": 1705352359
  },
  {
    "city": "Braslovče",
    "city_ascii": "Braslovce",
    "lat": 46.2884,
    "lng": 15.0386,
    "country": "Slovenia",
    "iso2": "SI",
    "iso3": "SVN",
    "admin_name": "Braslovče",
    "capital": "admin",
    "population": 378,
    "id": 1705126731
  },
  {
    "city": "Trnovska Vas",
    "city_ascii": "Trnovska Vas",
    "lat": 46.5231,
    "lng": 15.8978,
    "country": "Slovenia",
    "iso2": "SI",
    "iso3": "SVN",
    "admin_name": "Trnovska Vas",
    "capital": "admin",
    "population": 369,
    "id": 1705654373
  },
  {
    "city": "Šavnik",
    "city_ascii": "Savnik",
    "lat": 42.95,
    "lng": 19.1,
    "country": "Montenegro",
    "iso2": "ME",
    "iso3": "MNE",
    "admin_name": "Šavnik",
    "capital": "admin",
    "population": 364,
    "id": 1499140506
  },
  {
    "city": "Jurovski Dol",
    "city_ascii": "Jurovski Dol",
    "lat": 46.6087,
    "lng": 15.7796,
    "country": "Slovenia",
    "iso2": "SI",
    "iso3": "SVN",
    "admin_name": "Sveti Jurij v Slovenskih Goricah",
    "capital": "admin",
    "population": 361,
    "id": 1705288408
  },
  {
    "city": "Centar Župa",
    "city_ascii": "Centar Zupa",
    "lat": 41.4775,
    "lng": 20.5578,
    "country": "North Macedonia",
    "iso2": "MK",
    "iso3": "MKD",
    "admin_name": "Centar Župa",
    "capital": "admin",
    "population": 354,
    "id": 1807323094
  },
  {
    "city": "Hrib-Loški Potok",
    "city_ascii": "Hrib-Loski Potok",
    "lat": 45.7015,
    "lng": 14.5901,
    "country": "Slovenia",
    "iso2": "SI",
    "iso3": "SVN",
    "admin_name": "Loški Potok",
    "capital": "admin",
    "population": 353,
    "id": 1705118688
  },
  {
    "city": "Vitomarci",
    "city_ascii": "Vitomarci",
    "lat": 46.5248,
    "lng": 15.9346,
    "country": "Slovenia",
    "iso2": "SI",
    "iso3": "SVN",
    "admin_name": "Sveti Andraž v Slovenskih Goricah",
    "capital": "admin",
    "population": 341,
    "id": 1705653481
  },
  {
    "city": "Dobrovo",
    "city_ascii": "Dobrovo",
    "lat": 45.9989,
    "lng": 13.5296,
    "country": "Slovenia",
    "iso2": "SI",
    "iso3": "SVN",
    "admin_name": "Brda",
    "capital": "admin",
    "population": 334,
    "id": 1705226459
  },
  {
    "city": "Leava",
    "city_ascii": "Leava",
    "lat": -14.2961,
    "lng": -178.1585,
    "country": "Wallis and Futuna",
    "iso2": "WF",
    "iso3": "WLF",
    "admin_name": "Sigave",
    "capital": "admin",
    "population": 322,
    "id": 1876731744
  },
  {
    "city": "Keflavík",
    "city_ascii": "Keflavik",
    "lat": 64.0167,
    "lng": -22.5667,
    "country": "Iceland",
    "iso2": "IS",
    "iso3": "ISL",
    "admin_name": "Reykjanesbær",
    "capital": "",
    "population": 314,
    "id": 1352901945
  },
  {
    "city": "Šentrupert",
    "city_ascii": "Sentrupert",
    "lat": 45.9769,
    "lng": 15.0897,
    "country": "Slovenia",
    "iso2": "SI",
    "iso3": "SVN",
    "admin_name": "Šentrupert",
    "capital": "admin",
    "population": 310,
    "id": 1705083565
  },
  {
    "city": "Dolneni",
    "city_ascii": "Dolneni",
    "lat": 41.4264,
    "lng": 21.4536,
    "country": "North Macedonia",
    "iso2": "MK",
    "iso3": "MKD",
    "admin_name": "Dolneni",
    "capital": "admin",
    "population": 300,
    "id": 1807169470
  },
  {
    "city": "Podvelka",
    "city_ascii": "Podvelka",
    "lat": 46.5864,
    "lng": 15.3286,
    "country": "Slovenia",
    "iso2": "SI",
    "iso3": "SVN",
    "admin_name": "Podvelka",
    "capital": "admin",
    "population": 299,
    "id": 1705523444
  },
  {
    "city": "Belčišta",
    "city_ascii": "Belcista",
    "lat": 41.3028,
    "lng": 20.8303,
    "country": "North Macedonia",
    "iso2": "MK",
    "iso3": "MKD",
    "admin_name": "Debarca",
    "capital": "admin",
    "population": 297,
    "id": 1807953626
  },
  {
    "city": "Porkeri",
    "city_ascii": "Porkeri",
    "lat": 61.4814,
    "lng": -6.7458,
    "country": "Faroe Islands",
    "iso2": "FO",
    "iso3": "FRO",
    "admin_name": "Porkeri",
    "capital": "admin",
    "population": 297,
    "id": 1234757268
  },
  {
    "city": "Nova Vas",
    "city_ascii": "Nova Vas",
    "lat": 45.7726,
    "lng": 14.5064,
    "country": "Slovenia",
    "iso2": "SI",
    "iso3": "SVN",
    "admin_name": "Bloke",
    "capital": "admin",
    "population": 293,
    "id": 1705701553
  },
  {
    "city": "Imdina",
    "city_ascii": "Imdina",
    "lat": 35.8858,
    "lng": 14.4031,
    "country": "Malta",
    "iso2": "MT",
    "iso3": "MLT",
    "admin_name": "Imdina",
    "capital": "admin",
    "population": 292,
    "id": 1470959100
  },
  {
    "city": "Hodoš",
    "city_ascii": "Hodos",
    "lat": 46.8285,
    "lng": 16.3239,
    "country": "Slovenia",
    "iso2": "SI",
    "iso3": "SVN",
    "admin_name": "Hodoš",
    "capital": "admin",
    "population": 280,
    "id": 1705217643
  },
  {
    "city": "Dol",
    "city_ascii": "Dol",
    "lat": 46.0884,
    "lng": 14.6425,
    "country": "Slovenia",
    "iso2": "SI",
    "iso3": "SVN",
    "admin_name": "Dol pri Ljubljani",
    "capital": "admin",
    "population": 277,
    "id": 1705717325
  },
  {
    "city": "Čučer-Sandevo",
    "city_ascii": "Cucer-Sandevo",
    "lat": 42.0975,
    "lng": 21.3877,
    "country": "North Macedonia",
    "iso2": "MK",
    "iso3": "MKD",
    "admin_name": "Čučer-Sandevo",
    "capital": "admin",
    "population": 274,
    "id": 1807969277
  },
  {
    "city": "Zelenikovo",
    "city_ascii": "Zelenikovo",
    "lat": 41.8867,
    "lng": 21.5869,
    "country": "North Macedonia",
    "iso2": "MK",
    "iso3": "MKD",
    "admin_name": "Zelenikovo",
    "capital": "admin",
    "population": 272,
    "id": 1807765797
  },
  {
    "city": "Melekeok",
    "city_ascii": "Melekeok",
    "lat": 7.5006,
    "lng": 134.6241,
    "country": "Palau",
    "iso2": "PW",
    "iso3": "PLW",
    "admin_name": "Melekeok",
    "capital": "",
    "population": 271,
    "id": 1585892017
  },
  {
    "city": "Tomaž pri Ormožu",
    "city_ascii": "Tomaz pri Ormozu",
    "lat": 46.4833,
    "lng": 16.0794,
    "country": "Slovenia",
    "iso2": "SI",
    "iso3": "SVN",
    "admin_name": "Sveti Tomaž",
    "capital": "admin",
    "population": 254,
    "id": 1705837424
  },
  {
    "city": "Bistrica ob Sotli",
    "city_ascii": "Bistrica ob Sotli",
    "lat": 46.0589,
    "lng": 15.6642,
    "country": "Slovenia",
    "iso2": "SI",
    "iso3": "SVN",
    "admin_name": "Bistrica ob Sotli",
    "capital": "admin",
    "population": 235,
    "id": 1705641346
  },
  {
    "city": "Škocjan",
    "city_ascii": "Skocjan",
    "lat": 45.9069,
    "lng": 15.2914,
    "country": "Slovenia",
    "iso2": "SI",
    "iso3": "SVN",
    "admin_name": "Škocjan",
    "capital": "admin",
    "population": 233,
    "id": 1705940381
  },
  {
    "city": "Makole",
    "city_ascii": "Makole",
    "lat": 46.3174,
    "lng": 15.6669,
    "country": "Slovenia",
    "iso2": "SI",
    "iso3": "SVN",
    "admin_name": "Makole",
    "capital": "admin",
    "population": 221,
    "id": 1705304446
  },
  {
    "city": "Sveti Jurij",
    "city_ascii": "Sveti Jurij",
    "lat": 46.5683,
    "lng": 16.0203,
    "country": "Slovenia",
    "iso2": "SI",
    "iso3": "SVN",
    "admin_name": "Sveti Jurij ob Ščavnici",
    "capital": "admin",
    "population": 209,
    "id": 1705832384
  },
  {
    "city": "Solčava",
    "city_ascii": "Solcava",
    "lat": 46.4201,
    "lng": 14.6918,
    "country": "Slovenia",
    "iso2": "SI",
    "iso3": "SVN",
    "admin_name": "Solčava",
    "capital": "admin",
    "population": 208,
    "id": 1705581561
  },
  {
    "city": "Destrnik",
    "city_ascii": "Destrnik",
    "lat": 46.4923,
    "lng": 15.8801,
    "country": "Slovenia",
    "iso2": "SI",
    "iso3": "SVN",
    "admin_name": "Destrnik",
    "capital": "admin",
    "population": 186,
    "id": 1705579309
  },
  {
    "city": "Cerkvenjak",
    "city_ascii": "Cerkvenjak",
    "lat": 46.566,
    "lng": 15.9429,
    "country": "Slovenia",
    "iso2": "SI",
    "iso3": "SVN",
    "admin_name": "Cerkvenjak",
    "capital": "admin",
    "population": 163,
    "id": 1705808302
  },
  {
    "city": "Al Qunayţirah",
    "city_ascii": "Al Qunaytirah",
    "lat": 33.1256,
    "lng": 35.8239,
    "country": "Syria",
    "iso2": "SY",
    "iso3": "SYR",
    "admin_name": "Al Qunayţirah",
    "capital": "admin",
    "population": 153,
    "id": 1760132692
  },
  {
    "city": "Razkrižje",
    "city_ascii": "Razkrizje",
    "lat": 46.5182,
    "lng": 16.2882,
    "country": "Slovenia",
    "iso2": "SI",
    "iso3": "SVN",
    "admin_name": "Razkrižje",
    "capital": "admin",
    "population": 141,
    "id": 1705276725
  },
  {
    "city": "Petrovec",
    "city_ascii": "Petrovec",
    "lat": 41.9389,
    "lng": 21.615,
    "country": "North Macedonia",
    "iso2": "MK",
    "iso3": "MKD",
    "admin_name": "Petrovec",
    "capital": "admin",
    "population": 121,
    "id": 1807236473
  },
  {
    "city": "Fort Wellington",
    "city_ascii": "Fort Wellington",
    "lat": 6.4,
    "lng": -57.6167,
    "country": "Guyana",
    "iso2": "GY",
    "iso3": "GUY",
    "admin_name": "Mahaica-Berbice",
    "capital": "admin",
    "population": 118,
    "id": 1328483798
  },
  {
    "city": "Dobje",
    "city_ascii": "Dobje",
    "lat": 46.1369,
    "lng": 15.3945,
    "country": "Slovenia",
    "iso2": "SI",
    "iso3": "SVN",
    "admin_name": "Dobje",
    "capital": "admin",
    "population": 114,
    "id": 1705204927
  },
  {
    "city": "Star Dojran",
    "city_ascii": "Star Dojran",
    "lat": 41.1865,
    "lng": 22.7203,
    "country": "North Macedonia",
    "iso2": "MK",
    "iso3": "MKD",
    "admin_name": "Dojran",
    "capital": "admin",
    "population": 105,
    "id": 1807304153
  },
  {
    "city": "Želino",
    "city_ascii": "Zelino",
    "lat": 41.9794,
    "lng": 21.0619,
    "country": "North Macedonia",
    "iso2": "MK",
    "iso3": "MKD",
    "admin_name": "Želino",
    "capital": "admin",
    "population": 105,
    "id": 1807040075
  },
  {
    "city": "Füzuli",
    "city_ascii": "Fuzuli",
    "lat": 39.6003,
    "lng": 47.1431,
    "country": "Azerbaijan",
    "iso2": "AZ",
    "iso3": "AZE",
    "admin_name": "Füzuli",
    "capital": "admin",
    "population": 90,
    "id": 1031872322
  },
  {
    "city": "Fámjin",
    "city_ascii": "Famjin",
    "lat": 61.5264,
    "lng": -6.8769,
    "country": "Faroe Islands",
    "iso2": "FO",
    "iso3": "FRO",
    "admin_name": "Fámjin",
    "capital": "admin",
    "population": 83,
    "id": 1234221310
  },
  {
    "city": "Osilnica",
    "city_ascii": "Osilnica",
    "lat": 45.5289,
    "lng": 14.6983,
    "country": "Slovenia",
    "iso2": "SI",
    "iso3": "SVN",
    "admin_name": "Osilnica",
    "capital": "admin",
    "population": 76,
    "id": 1705839708
  },
  {
    "city": "Studeničani",
    "city_ascii": "Studenicani",
    "lat": 41.9158,
    "lng": 21.5306,
    "country": "North Macedonia",
    "iso2": "MK",
    "iso3": "MKD",
    "admin_name": "Studeničani",
    "capital": "admin",
    "population": 59,
    "id": 1807047160
  },
  {
    "city": "Pagėgiai",
    "city_ascii": "Pagegiai",
    "lat": 55.1333,
    "lng": 21.9167,
    "country": "Lithuania",
    "iso2": "LT",
    "iso3": "LTU",
    "admin_name": "Pagégiai",
    "capital": "admin",
    "population": 57,
    "id": 1440724133
  },
  {
    "city": "Samamea",
    "city_ascii": "Samamea",
    "lat": -13.9333,
    "lng": -171.5333,
    "country": "Samoa",
    "iso2": "WS",
    "iso3": "WSM",
    "admin_name": "Va‘a-o-Fonoti",
    "capital": "admin",
    "population": 45,
    "id": 1882468874
  },
  {
    "city": "Bogovinje",
    "city_ascii": "Bogovinje",
    "lat": 41.9233,
    "lng": 20.9133,
    "country": "North Macedonia",
    "iso2": "MK",
    "iso3": "MKD",
    "admin_name": "Bogovinje",
    "capital": "admin",
    "population": 25,
    "id": 1807279534
  }
]