[
  {
    "city": "Swieqi",
    "city_ascii": "Swieqi",
    "lat": 35.9208,
    "lng": 14.48,
    "country": "Malta",
    "iso2": "MT",
    "iso3": "MLT",
    "admin_name": "Swieqi",
    "capital": "admin",
    "population": 10064,
    "id": 1470279940
  },
  {
    "city": "Olaine",
    "city_ascii": "Olaine",
    "lat": 56.7833,
    "lng": 23.9333,
    "country": "Latvia",
    "iso2": "LV",
    "iso3": "LVA",
    "admin_name": "Olaine",
    "capital": "admin",
    "population": 10062,
    "id": 1428220700
  },
  {
    "city": "Kirundo",
    "city_ascii": "Kirundo",
    "lat": -2.59,
    "lng": 30.09,
    "country": "Burundi",
    "iso2": "BI",
    "iso3": "BDI",
    "admin_name": "Kirundo",
    "capital": "admin",
    "population": 10024,
    "id": 1108527579
  },
  {
    "city": "Kuldīga",
    "city_ascii": "Kuldiga",
    "lat": 56.9667,
    "lng": 21.9667,
    "country": "Latvia",
    "iso2": "LV",
    "iso3": "LVA",
    "admin_name": "Kuldīga",
    "capital": "admin",
    "population": 10019,
    "id": 1428739306
  },
  {
    "city": "Butha-Buthe",
    "city_ascii": "Butha-Buthe",
    "lat": -28.7833,
    "lng": 28.2333,
    "country": "Lesotho",
    "iso2": "LS",
    "iso3": "LSO",
    "admin_name": "Butha-Buthe",
    "capital": "admin",
    "population": 10000,
    "id": 1426574356
  },
  {
    "city": "Bukomansimbi",
    "city_ascii": "Bukomansimbi",
    "lat": -0.1667,
    "lng": 31.6186,
    "country": "Uganda",
    "iso2": "UG",
    "iso3": "UGA",
    "admin_name": "Bukomansimbi",
    "capital": "admin",
    "population": 10000,
    "id": 1800146127
  },
  {
    "city": "Sotik",
    "city_ascii": "Sotik",
    "lat": -0.68,
    "lng": 35.12,
    "country": "Kenya",
    "iso2": "KE",
    "iso3": "KEN",
    "admin_name": "Bomet",
    "capital": "",
    "population": 10000,
    "id": 1404807525
  },
  {
    "city": "Aībak",
    "city_ascii": "Aibak",
    "lat": 36.2653,
    "lng": 68.0167,
    "country": "Afghanistan",
    "iso2": "AF",
    "iso3": "AFG",
    "admin_name": "Samangān",
    "capital": "admin",
    "population": 9958,
    "id": 1004564619
  },
  {
    "city": "Mohlanapeng",
    "city_ascii": "Mohlanapeng",
    "lat": -29.6975,
    "lng": 28.6947,
    "country": "Lesotho",
    "iso2": "LS",
    "iso3": "LSO",
    "admin_name": "Thaba-Tseka",
    "capital": "",
    "population": 9882,
    "id": 1426075936
  },
  {
    "city": "Kanjiža",
    "city_ascii": "Kanjiza",
    "lat": 46.0667,
    "lng": 20.05,
    "country": "Serbia",
    "iso2": "RS",
    "iso3": "SRB",
    "admin_name": "Kanjiža",
    "capital": "admin",
    "population": 9871,
    "id": 1688731968
  },
  {
    "city": "Geylegphug",
    "city_ascii": "Geylegphug",
    "lat": 26.8706,
    "lng": 90.4856,
    "country": "Bhutan",
    "iso2": "BT",
    "iso3": "BTN",
    "admin_name": "Sarpang",
    "capital": "",
    "population": 9858,
    "id": 1064875901
  },
  {
    "city": "Haapsalu",
    "city_ascii": "Haapsalu",
    "lat": 58.9394,
    "lng": 23.5408,
    "country": "Estonia",
    "iso2": "EE",
    "iso3": "EST",
    "admin_name": "Haapsalu",
    "capital": "admin",
    "population": 9812,
    "id": 1233967642
  },
  {
    "city": "Bauska",
    "city_ascii": "Bauska",
    "lat": 56.4083,
    "lng": 24.1931,
    "country": "Latvia",
    "iso2": "LV",
    "iso3": "LVA",
    "admin_name": "Bauska",
    "capital": "admin",
    "population": 9797,
    "id": 1428015452
  },
  {
    "city": "Birżebbuġa",
    "city_ascii": "Birzebbuga",
    "lat": 35.8256,
    "lng": 14.5281,
    "country": "Malta",
    "iso2": "MT",
    "iso3": "MLT",
    "admin_name": "Birżebbuġa",
    "capital": "admin",
    "population": 9736,
    "id": 1470830646
  },
  {
    "city": "Sant Julià de Lòria",
    "city_ascii": "Sant Julia de Loria",
    "lat": 42.465,
    "lng": 1.4911,
    "country": "Andorra",
    "iso2": "AD",
    "iso3": "AND",
    "admin_name": "Sant Julià de Lòria",
    "capital": "admin",
    "population": 9694,
    "id": 1020885733
  },
  {
    "city": "Raseiniai",
    "city_ascii": "Raseiniai",
    "lat": 55.3667,
    "lng": 23.1167,
    "country": "Lithuania",
    "iso2": "LT",
    "iso3": "LTU",
    "admin_name": "Raseiniai",
    "capital": "admin",
    "population": 9686,
    "id": 1440481520
  },
  {
    "city": "Lentvaris",
    "city_ascii": "Lentvaris",
    "lat": 54.65,
    "lng": 25.0667,
    "country": "Lithuania",
    "iso2": "LT",
    "iso3": "LTU",
    "admin_name": "Trakai",
    "capital": "",
    "population": 9680,
    "id": 1440638790
  },
  {
    "city": "Delčevo",
    "city_ascii": "Delcevo",
    "lat": 41.9661,
    "lng": 22.7747,
    "country": "North Macedonia",
    "iso2": "MK",
    "iso3": "MKD",
    "admin_name": "Delčevo",
    "capital": "admin",
    "population": 9644,
    "id": 1807161783
  },
  {
    "city": "Selfoss",
    "city_ascii": "Selfoss",
    "lat": 63.9333,
    "lng": -21,
    "country": "Iceland",
    "iso2": "IS",
    "iso3": "ISL",
    "admin_name": "Sveitarfélagið Árborg",
    "capital": "",
    "population": 9624,
    "id": 1352214400
  },
  {
    "city": "Sigatoka",
    "city_ascii": "Sigatoka",
    "lat": -18.1414,
    "lng": 177.5069,
    "country": "Fiji",
    "iso2": "FJ",
    "iso3": "FJI",
    "admin_name": "Nadroga and Navosa",
    "capital": "",
    "population": 9622,
    "id": 1242813237
  },
  {
    "city": "Caernarfon",
    "city_ascii": "Caernarfon",
    "lat": 53.14,
    "lng": -4.27,
    "country": "United Kingdom",
    "iso2": "GB",
    "iso3": "GBR",
    "admin_name": "Gwynedd",
    "capital": "",
    "population": 9615,
    "id": 1826011275
  },
  {
    "city": "Ćuprija",
    "city_ascii": "Cuprija",
    "lat": 43.9333,
    "lng": 21.3667,
    "country": "Serbia",
    "iso2": "RS",
    "iso3": "SRB",
    "admin_name": "Ćuprija",
    "capital": "admin",
    "population": 9609,
    "id": 1688642855
  },
  {
    "city": "Muyinga",
    "city_ascii": "Muyinga",
    "lat": -2.85,
    "lng": 30.3333,
    "country": "Burundi",
    "iso2": "BI",
    "iso3": "BDI",
    "admin_name": "Muyinga",
    "capital": "admin",
    "population": 9609,
    "id": 1108466781
  },
  {
    "city": "Postojna",
    "city_ascii": "Postojna",
    "lat": 45.7759,
    "lng": 14.2137,
    "country": "Slovenia",
    "iso2": "SI",
    "iso3": "SVN",
    "admin_name": "Postojna",
    "capital": "admin",
    "population": 9605,
    "id": 1705090259
  },
  {
    "city": "Borogani",
    "city_ascii": "Borogani",
    "lat": 46.3667,
    "lng": 28.5167,
    "country": "Moldova",
    "iso2": "MD",
    "iso3": "MDA",
    "admin_name": "Cantemir",
    "capital": "",
    "population": 9562,
    "id": 1498462266
  },
  {
    "city": "Basco",
    "city_ascii": "Basco",
    "lat": 20.45,
    "lng": 121.97,
    "country": "Philippines",
    "iso2": "PH",
    "iso3": "PHL",
    "admin_name": "Batanes",
    "capital": "admin",
    "population": 9517,
    "id": 1608620601
  },
  {
    "city": "Bulisa",
    "city_ascii": "Bulisa",
    "lat": 2.1217,
    "lng": 31.4156,
    "country": "Uganda",
    "iso2": "UG",
    "iso3": "UGA",
    "admin_name": "Buliisa",
    "capital": "admin",
    "population": 9500,
    "id": 1800842426
  },
  {
    "city": "Saldus",
    "city_ascii": "Saldus",
    "lat": 56.6667,
    "lng": 22.5,
    "country": "Latvia",
    "iso2": "LV",
    "iso3": "LVA",
    "admin_name": "Saldus",
    "capital": "admin",
    "population": 9493,
    "id": 1428774997
  },
  {
    "city": "Ćićevac",
    "city_ascii": "Cicevac",
    "lat": 43.7167,
    "lng": 21.45,
    "country": "Serbia",
    "iso2": "RS",
    "iso3": "SRB",
    "admin_name": "Ćićevac",
    "capital": "admin",
    "population": 9446,
    "id": 1688834584
  },
  {
    "city": "Hani i Elezit",
    "city_ascii": "Hani i Elezit",
    "lat": 42.1475,
    "lng": 21.2992,
    "country": "Kosovo",
    "iso2": "XK",
    "iso3": "XKS",
    "admin_name": "Hani i Elezit",
    "capital": "admin",
    "population": 9403,
    "id": 1901964789
  },
  {
    "city": "Altdorf",
    "city_ascii": "Altdorf",
    "lat": 46.8667,
    "lng": 8.6333,
    "country": "Switzerland",
    "iso2": "CH",
    "iso3": "CHE",
    "admin_name": "Uri",
    "capital": "admin",
    "population": 9401,
    "id": 1756957308
  },
  {
    "city": "Makamba",
    "city_ascii": "Makamba",
    "lat": -4.1333,
    "lng": 29.8,
    "country": "Burundi",
    "iso2": "BI",
    "iso3": "BDI",
    "admin_name": "Makamba",
    "capital": "admin",
    "population": 9396,
    "id": 1108520771
  },
  {
    "city": "Tivat",
    "city_ascii": "Tivat",
    "lat": 42.43,
    "lng": 18.7,
    "country": "Montenegro",
    "iso2": "ME",
    "iso3": "MNE",
    "admin_name": "Tivat",
    "capital": "admin",
    "population": 9367,
    "id": 1499952005
  },
  {
    "city": "Ntchisi",
    "city_ascii": "Ntchisi",
    "lat": -13.3667,
    "lng": 34,
    "country": "Malawi",
    "iso2": "MW",
    "iso3": "MWI",
    "admin_name": "Ntchisi",
    "capital": "admin",
    "population": 9357,
    "id": 1454004377
  },
  {
    "city": "Samdrup Jongkhar",
    "city_ascii": "Samdrup Jongkhar",
    "lat": 26.8,
    "lng": 91.505,
    "country": "Bhutan",
    "iso2": "BT",
    "iso3": "BTN",
    "admin_name": "Samdrup Jongkhar",
    "capital": "admin",
    "population": 9325,
    "id": 1064656050
  },
  {
    "city": "Sədərək",
    "city_ascii": "Sadarak",
    "lat": 39.7175,
    "lng": 44.8764,
    "country": "Azerbaijan",
    "iso2": "AZ",
    "iso3": "AZE",
    "admin_name": "Sədərək",
    "capital": "",
    "population": 9306,
    "id": 1031675404
  },
  {
    "city": "Rîşcani",
    "city_ascii": "Riscani",
    "lat": 47.9572,
    "lng": 27.5539,
    "country": "Moldova",
    "iso2": "MD",
    "iso3": "MDA",
    "admin_name": "Rîşcani",
    "capital": "admin",
    "population": 9259,
    "id": 1498650340
  },
  {
    "city": "Las Tablas",
    "city_ascii": "Las Tablas",
    "lat": 7.7667,
    "lng": -80.2833,
    "country": "Panama",
    "iso2": "PA",
    "iso3": "PAN",
    "admin_name": "Los Santos",
    "capital": "admin",
    "population": 9255,
    "id": 1591472114
  },
  {
    "city": "Ħamrun",
    "city_ascii": "Hamrun",
    "lat": 35.8861,
    "lng": 14.4894,
    "country": "Malta",
    "iso2": "MT",
    "iso3": "MLT",
    "admin_name": "Ħamrun",
    "capital": "admin",
    "population": 9244,
    "id": 1470141385
  },
  {
    "city": "Foammulah",
    "city_ascii": "Foammulah",
    "lat": -0.2932,
    "lng": 73.4236,
    "country": "Maldives",
    "iso2": "MV",
    "iso3": "MDV",
    "admin_name": "Fuvammulah",
    "capital": "admin",
    "population": 9166,
    "id": 1462000002
  },
  {
    "city": "Žabalj",
    "city_ascii": "Zabalj",
    "lat": 45.3667,
    "lng": 20.0667,
    "country": "Serbia",
    "iso2": "RS",
    "iso3": "SRB",
    "admin_name": "Žabalj",
    "capital": "admin",
    "population": 9161,
    "id": 1688662344
  },
  {
    "city": "Gədəbəy",
    "city_ascii": "Gadabay",
    "lat": 40.5656,
    "lng": 45.8161,
    "country": "Azerbaijan",
    "iso2": "AZ",
    "iso3": "AZE",
    "admin_name": "Gədəbəy",
    "capital": "admin",
    "population": 9161,
    "id": 1031444480
  },
  {
    "city": "Ražanj",
    "city_ascii": "Razanj",
    "lat": 43.6667,
    "lng": 21.55,
    "country": "Serbia",
    "iso2": "RS",
    "iso3": "SRB",
    "admin_name": "Ražanj",
    "capital": "admin",
    "population": 9150,
    "id": 1688323517
  },
  {
    "city": "Katakwi",
    "city_ascii": "Katakwi",
    "lat": 1.915,
    "lng": 33.955,
    "country": "Uganda",
    "iso2": "UG",
    "iso3": "UGA",
    "admin_name": "Katakwi",
    "capital": "admin",
    "population": 9100,
    "id": 1800303827
  },
  {
    "city": "Logatec",
    "city_ascii": "Logatec",
    "lat": 45.9167,
    "lng": 14.2297,
    "country": "Slovenia",
    "iso2": "SI",
    "iso3": "SVN",
    "admin_name": "Logatec",
    "capital": "admin",
    "population": 9091,
    "id": 1705275257
  },
  {
    "city": "Ewo",
    "city_ascii": "Ewo",
    "lat": -0.8742,
    "lng": 14.8167,
    "country": "Congo (Brazzaville)",
    "iso2": "CG",
    "iso3": "COG",
    "admin_name": "Cuvette-Ouest",
    "capital": "admin",
    "population": 9062,
    "id": 1178339407
  },
  {
    "city": "Manatuto",
    "city_ascii": "Manatuto",
    "lat": -8.5167,
    "lng": 126.0167,
    "country": "Timor-Leste",
    "iso2": "TL",
    "iso3": "TLS",
    "admin_name": "Manatuto",
    "capital": "admin",
    "population": 9022,
    "id": 1626115337
  },
  {
    "city": "Odžaci",
    "city_ascii": "Odzaci",
    "lat": 45.5167,
    "lng": 19.2667,
    "country": "Serbia",
    "iso2": "RS",
    "iso3": "SRB",
    "admin_name": "Odžaci",
    "capital": "admin",
    "population": 9021,
    "id": 1688373834
  },
  {
    "city": "Kasane",
    "city_ascii": "Kasane",
    "lat": -17.8167,
    "lng": 25.15,
    "country": "Botswana",
    "iso2": "BW",
    "iso3": "BWA",
    "admin_name": "Chobe",
    "capital": "admin",
    "population": 9008,
    "id": 1072217316
  },
  {
    "city": "Vrhnika",
    "city_ascii": "Vrhnika",
    "lat": 45.9624,
    "lng": 14.2937,
    "country": "Slovenia",
    "iso2": "SI",
    "iso3": "SVN",
    "admin_name": "Vrhnika",
    "capital": "admin",
    "population": 8969,
    "id": 1705071756
  }
]