[
  {
    "city": "Tacuarembó",
    "city_ascii": "Tacuarembo",
    "lat": -31.7333,
    "lng": -55.9833,
    "country": "Uruguay",
    "iso2": "UY",
    "iso3": "URY",
    "admin_name": "Tacuarembó",
    "capital": "admin",
    "population": 54755,
    "id": 1858952595
  },
  {
    "city": "Trenčín",
    "city_ascii": "Trencin",
    "lat": 48.8919,
    "lng": 18.0367,
    "country": "Slovakia",
    "iso2": "SK",
    "iso3": "SVK",
    "admin_name": "Trenčin",
    "capital": "admin",
    "population": 54740,
    "id": 1703029695
  },
  {
    "city": "Mikkeli",
    "city_ascii": "Mikkeli",
    "lat": 61.689,
    "lng": 27.272,
    "country": "Finland",
    "iso2": "FI",
    "iso3": "FIN",
    "admin_name": "Etelä-Savo",
    "capital": "admin",
    "population": 54621,
    "id": 1246875185
  },
  {
    "city": "Gabrovo",
    "city_ascii": "Gabrovo",
    "lat": 42.8667,
    "lng": 25.3333,
    "country": "Bulgaria",
    "iso2": "BG",
    "iso3": "BGR",
    "admin_name": "Gabrovo",
    "capital": "admin",
    "population": 54608,
    "id": 1100696135
  },
  {
    "city": "Terneuzen",
    "city_ascii": "Terneuzen",
    "lat": 51.3333,
    "lng": 3.8333,
    "country": "Netherlands",
    "iso2": "NL",
    "iso3": "NLD",
    "admin_name": "Zeeland",
    "capital": "minor",
    "population": 54589,
    "id": 1528400291
  },
  {
    "city": "Santa Elena",
    "city_ascii": "Santa Elena",
    "lat": -2.2267,
    "lng": -80.8583,
    "country": "Ecuador",
    "iso2": "EC",
    "iso3": "ECU",
    "admin_name": "Santa Elena",
    "capital": "admin",
    "population": 54565,
    "id": 1218296446
  },
  {
    "city": "Giurgiu",
    "city_ascii": "Giurgiu",
    "lat": 43.9008,
    "lng": 25.9739,
    "country": "Romania",
    "iso2": "RO",
    "iso3": "ROU",
    "admin_name": "Giurgiu",
    "capital": "admin",
    "population": 54551,
    "id": 1642984994
  },
  {
    "city": "Ruma",
    "city_ascii": "Ruma",
    "lat": 45,
    "lng": 19.8333,
    "country": "Serbia",
    "iso2": "RS",
    "iso3": "SRB",
    "admin_name": "Ruma",
    "capital": "admin",
    "population": 54339,
    "id": 1688037789
  },
  {
    "city": "Paraćin",
    "city_ascii": "Paracin",
    "lat": 43.8667,
    "lng": 21.4167,
    "country": "Serbia",
    "iso2": "RS",
    "iso3": "SRB",
    "admin_name": "Paraćin",
    "capital": "admin",
    "population": 54267,
    "id": 1688523885
  },
  {
    "city": "Christchurch",
    "city_ascii": "Christchurch",
    "lat": 50.73,
    "lng": -1.78,
    "country": "United Kingdom",
    "iso2": "GB",
    "iso3": "GBR",
    "admin_name": "Dorset",
    "capital": "",
    "population": 54210,
    "id": 1826669534
  },
  {
    "city": "Louang Namtha",
    "city_ascii": "Louang Namtha",
    "lat": 20.95,
    "lng": 101.4,
    "country": "Laos",
    "iso2": "LA",
    "iso3": "LAO",
    "admin_name": "Louangnamtha",
    "capital": "admin",
    "population": 54100,
    "id": 1418920136
  },
  {
    "city": "Chèddra",
    "city_ascii": "Cheddra",
    "lat": 13.4428,
    "lng": 16.0508,
    "country": "Chad",
    "iso2": "TD",
    "iso3": "TCD",
    "admin_name": "Barh-El-Gazel",
    "capital": "",
    "population": 54072,
    "id": 1148029349
  },
  {
    "city": "Narva",
    "city_ascii": "Narva",
    "lat": 59.3758,
    "lng": 28.1961,
    "country": "Estonia",
    "iso2": "EE",
    "iso3": "EST",
    "admin_name": "Narva",
    "capital": "minor",
    "population": 53875,
    "id": 1233751159
  },
  {
    "city": "Iganga",
    "city_ascii": "Iganga",
    "lat": 0.615,
    "lng": 33.485,
    "country": "Uganda",
    "iso2": "UG",
    "iso3": "UGA",
    "admin_name": "Iganga",
    "capital": "admin",
    "population": 53870,
    "id": 1800987671
  },
  {
    "city": "Juigalpa",
    "city_ascii": "Juigalpa",
    "lat": 12.1,
    "lng": -85.3667,
    "country": "Nicaragua",
    "iso2": "NI",
    "iso3": "NIC",
    "admin_name": "Chontales",
    "capital": "admin",
    "population": 53798,
    "id": 1558986603
  },
  {
    "city": "Louangphabang",
    "city_ascii": "Louangphabang",
    "lat": 19.89,
    "lng": 102.1347,
    "country": "Laos",
    "iso2": "LA",
    "iso3": "LAO",
    "admin_name": "Louangphabang",
    "capital": "admin",
    "population": 53792,
    "id": 1418530759
  },
  {
    "city": "Sakon Nakhon",
    "city_ascii": "Sakon Nakhon",
    "lat": 17.1564,
    "lng": 104.1456,
    "country": "Thailand",
    "iso2": "TH",
    "iso3": "THA",
    "admin_name": "Sakon Nakhon",
    "capital": "admin",
    "population": 53618,
    "id": 1764476362
  },
  {
    "city": "Gisenyi",
    "city_ascii": "Gisenyi",
    "lat": -1.7,
    "lng": 29.25,
    "country": "Rwanda",
    "iso2": "RW",
    "iso3": "RWA",
    "admin_name": "Western Province",
    "capital": "",
    "population": 53603,
    "id": 1646226936
  },
  {
    "city": "Évora",
    "city_ascii": "Evora",
    "lat": 38.5667,
    "lng": -7.9,
    "country": "Portugal",
    "iso2": "PT",
    "iso3": "PRT",
    "admin_name": "Évora",
    "capital": "admin",
    "population": 53591,
    "id": 1620456226
  },
  {
    "city": "Popeşti-Leordeni",
    "city_ascii": "Popesti-Leordeni",
    "lat": 44.38,
    "lng": 26.17,
    "country": "Romania",
    "iso2": "RO",
    "iso3": "ROU",
    "admin_name": "Ilfov",
    "capital": "",
    "population": 53434,
    "id": 1642953954
  },
  {
    "city": "Gorkhā",
    "city_ascii": "Gorkha",
    "lat": 28,
    "lng": 84.6333,
    "country": "Nepal",
    "iso2": "NP",
    "iso3": "NPL",
    "admin_name": "Karṇālī",
    "capital": "",
    "population": 53285,
    "id": 1524733316
  },
  {
    "city": "Tokmok",
    "city_ascii": "Tokmok",
    "lat": 42.8333,
    "lng": 75.2833,
    "country": "Kyrgyzstan",
    "iso2": "KG",
    "iso3": "KGZ",
    "admin_name": "Chüy",
    "capital": "",
    "population": 53231,
    "id": 1417875875
  },
  {
    "city": "San Vicente",
    "city_ascii": "San Vicente",
    "lat": 13.6453,
    "lng": -88.7842,
    "country": "El Salvador",
    "iso2": "SV",
    "iso3": "SLV",
    "admin_name": "San Vicente",
    "capital": "admin",
    "population": 53213,
    "id": 1222913273
  },
  {
    "city": "Kabale",
    "city_ascii": "Kabale",
    "lat": -1.25,
    "lng": 29.99,
    "country": "Uganda",
    "iso2": "UG",
    "iso3": "UGA",
    "admin_name": "Kabale",
    "capital": "admin",
    "population": 53200,
    "id": 1800408751
  },
  {
    "city": "Deva",
    "city_ascii": "Deva",
    "lat": 45.8781,
    "lng": 22.9144,
    "country": "Romania",
    "iso2": "RO",
    "iso3": "ROU",
    "admin_name": "Hunedoara",
    "capital": "",
    "population": 53113,
    "id": 1642728479
  },
  {
    "city": "Hereford",
    "city_ascii": "Hereford",
    "lat": 52.056,
    "lng": -2.716,
    "country": "United Kingdom",
    "iso2": "GB",
    "iso3": "GBR",
    "admin_name": "Herefordshire",
    "capital": "",
    "population": 53112,
    "id": 1826996583
  },
  {
    "city": "Dunfermline",
    "city_ascii": "Dunfermline",
    "lat": 56.0719,
    "lng": -3.4393,
    "country": "United Kingdom",
    "iso2": "GB",
    "iso3": "GBR",
    "admin_name": "Fife",
    "capital": "",
    "population": 53100,
    "id": 1826424354
  },
  {
    "city": "Targovishte",
    "city_ascii": "Targovishte",
    "lat": 43.25,
    "lng": 26.5833,
    "country": "Bulgaria",
    "iso2": "BG",
    "iso3": "BGR",
    "admin_name": "Targovishte",
    "capital": "admin",
    "population": 53041,
    "id": 1100987486
  },
  {
    "city": "San Estanislao",
    "city_ascii": "San Estanislao",
    "lat": -24.65,
    "lng": -56.4333,
    "country": "Paraguay",
    "iso2": "PY",
    "iso3": "PRY",
    "admin_name": "San Pedro",
    "capital": "",
    "population": 52983,
    "id": 1600701903
  },
  {
    "city": "Phra Nakhon Si Ayutthaya",
    "city_ascii": "Phra Nakhon Si Ayutthaya",
    "lat": 14.3478,
    "lng": 100.5606,
    "country": "Thailand",
    "iso2": "TH",
    "iso3": "THA",
    "admin_name": "Phra Nakhon Si Ayutthaya",
    "capital": "admin",
    "population": 52940,
    "id": 1764002329
  },
  {
    "city": "Maha Sarakham",
    "city_ascii": "Maha Sarakham",
    "lat": 16.1772,
    "lng": 103.3008,
    "country": "Thailand",
    "iso2": "TH",
    "iso3": "THA",
    "admin_name": "Maha Sarakham",
    "capital": "admin",
    "population": 52866,
    "id": 1764568961
  },
  {
    "city": "Hrazdan",
    "city_ascii": "Hrazdan",
    "lat": 40.5,
    "lng": 44.7667,
    "country": "Armenia",
    "iso2": "AM",
    "iso3": "ARM",
    "admin_name": "Kotayk’",
    "capital": "admin",
    "population": 52808,
    "id": 1051566733
  },
  {
    "city": "Madīnat Ḩamad",
    "city_ascii": "Madinat Hamad",
    "lat": 26.1128,
    "lng": 50.5139,
    "country": "Bahrain",
    "iso2": "BH",
    "iso3": "BHR",
    "admin_name": "Ash Shamālīyah",
    "capital": "",
    "population": 52700,
    "id": 1048909146
  },
  {
    "city": "Roskilde",
    "city_ascii": "Roskilde",
    "lat": 55.65,
    "lng": 12.0833,
    "country": "Denmark",
    "iso2": "DK",
    "iso3": "DNK",
    "admin_name": "Sjælland",
    "capital": "minor",
    "population": 52580,
    "id": 1208722269
  },
  {
    "city": "Jihlava",
    "city_ascii": "Jihlava",
    "lat": 49.4003,
    "lng": 15.5906,
    "country": "Czechia",
    "iso2": "CZ",
    "iso3": "CZE",
    "admin_name": "Vysočina",
    "capital": "admin",
    "population": 52548,
    "id": 1203810604
  },
  {
    "city": "Tønsberg",
    "city_ascii": "Tonsberg",
    "lat": 59.2675,
    "lng": 10.4076,
    "country": "Norway",
    "iso2": "NO",
    "iso3": "NOR",
    "admin_name": "Vestfold og Telemark",
    "capital": "minor",
    "population": 52419,
    "id": 1578658467
  },
  {
    "city": "Coronel Oviedo",
    "city_ascii": "Coronel Oviedo",
    "lat": -25.4167,
    "lng": -56.45,
    "country": "Paraguay",
    "iso2": "PY",
    "iso3": "PRY",
    "admin_name": "Caaguazú",
    "capital": "admin",
    "population": 52400,
    "id": 1600075989
  },
  {
    "city": "Charlottetown",
    "city_ascii": "Charlottetown",
    "lat": 46.2403,
    "lng": -63.1347,
    "country": "Canada",
    "iso2": "CA",
    "iso3": "CAN",
    "admin_name": "Prince Edward Island",
    "capital": "admin",
    "population": 52390,
    "id": 1124897699
  },
  {
    "city": "Zalău",
    "city_ascii": "Zalau",
    "lat": 47.1911,
    "lng": 23.0572,
    "country": "Romania",
    "iso2": "RO",
    "iso3": "ROU",
    "admin_name": "Sălaj",
    "capital": "admin",
    "population": 52359,
    "id": 1642791988
  },
  {
    "city": "Marondera",
    "city_ascii": "Marondera",
    "lat": -18.1897,
    "lng": 31.5467,
    "country": "Zimbabwe",
    "iso2": "ZW",
    "iso3": "ZWE",
    "admin_name": "Mashonaland East",
    "capital": "admin",
    "population": 52283,
    "id": 1716375676
  },
  {
    "city": "Pula",
    "city_ascii": "Pula",
    "lat": 44.8703,
    "lng": 13.8456,
    "country": "Croatia",
    "iso2": "HR",
    "iso3": "HRV",
    "admin_name": "Istarska Županija",
    "capital": "minor",
    "population": 52220,
    "id": 1191143009
  },
  {
    "city": "Ålesund",
    "city_ascii": "Alesund",
    "lat": 62.474,
    "lng": 6.1582,
    "country": "Norway",
    "iso2": "NO",
    "iso3": "NOR",
    "admin_name": "Møre og Romsdal",
    "capital": "minor",
    "population": 52163,
    "id": 1578050516
  },
  {
    "city": "Tejen",
    "city_ascii": "Tejen",
    "lat": 37.3833,
    "lng": 60.5,
    "country": "Turkmenistan",
    "iso2": "TM",
    "iso3": "TKM",
    "admin_name": "Ahal",
    "capital": "",
    "population": 52000,
    "id": 1795500486
  },
  {
    "city": "Takeo",
    "city_ascii": "Takeo",
    "lat": 10.9833,
    "lng": 104.7833,
    "country": "Cambodia",
    "iso2": "KH",
    "iso3": "KHM",
    "admin_name": "Takeo",
    "capital": "admin",
    "population": 52000,
    "id": 1116674518
  },
  {
    "city": "Alytus",
    "city_ascii": "Alytus",
    "lat": 54.4014,
    "lng": 24.0492,
    "country": "Lithuania",
    "iso2": "LT",
    "iso3": "LTU",
    "admin_name": "Alytaus Miestas",
    "capital": "admin",
    "population": 51856,
    "id": 1440273296
  },
  {
    "city": "Vila Real",
    "city_ascii": "Vila Real",
    "lat": 41.2958,
    "lng": -7.7461,
    "country": "Portugal",
    "iso2": "PT",
    "iso3": "PRT",
    "admin_name": "Vila Real",
    "capital": "admin",
    "population": 51850,
    "id": 1620292123
  },
  {
    "city": "Kardzhali",
    "city_ascii": "Kardzhali",
    "lat": 41.65,
    "lng": 25.3667,
    "country": "Bulgaria",
    "iso2": "BG",
    "iso3": "BGR",
    "admin_name": "Kardzhali",
    "capital": "admin",
    "population": 51841,
    "id": 1100473094
  },
  {
    "city": "Melo",
    "city_ascii": "Melo",
    "lat": -32.3667,
    "lng": -54.1833,
    "country": "Uruguay",
    "iso2": "UY",
    "iso3": "URY",
    "admin_name": "Cerro Largo",
    "capital": "admin",
    "population": 51830,
    "id": 1858600801
  },
  {
    "city": "Aguadulce",
    "city_ascii": "Aguadulce",
    "lat": 8.24,
    "lng": -80.54,
    "country": "Panama",
    "iso2": "PA",
    "iso3": "PAN",
    "admin_name": "Coclé",
    "capital": "minor",
    "population": 51668,
    "id": 1591589017
  },
  {
    "city": "Barri",
    "city_ascii": "Barri",
    "lat": 51.405,
    "lng": -3.27,
    "country": "United Kingdom",
    "iso2": "GB",
    "iso3": "GBR",
    "admin_name": "Vale of Glamorgan, The",
    "capital": "",
    "population": 51502,
    "id": 1826605492
  }
]