[
  {
    "city": "Kazlų Rūda",
    "city_ascii": "Kazlu Ruda",
    "lat": 54.75,
    "lng": 23.5,
    "country": "Lithuania",
    "iso2": "LT",
    "iso3": "LTU",
    "admin_name": "Kazlų Rūdos",
    "capital": "admin",
    "population": 5507,
    "id": 1440371651
  },
  {
    "city": "Namanga",
    "city_ascii": "Namanga",
    "lat": -2.55,
    "lng": 36.7833,
    "country": "Kenya",
    "iso2": "KE",
    "iso3": "KEN",
    "admin_name": "Nyamira",
    "capital": "",
    "population": 5500,
    "id": 1404000001
  },
  {
    "city": "Črnomelj",
    "city_ascii": "Crnomelj",
    "lat": 45.5711,
    "lng": 15.1889,
    "country": "Slovenia",
    "iso2": "SI",
    "iso3": "SVN",
    "admin_name": "Črnomelj",
    "capital": "admin",
    "population": 5496,
    "id": 1705132468
  },
  {
    "city": "Petnjica",
    "city_ascii": "Petnjica",
    "lat": 42.9089,
    "lng": 19.9644,
    "country": "Montenegro",
    "iso2": "ME",
    "iso3": "MNE",
    "admin_name": "Petnjica",
    "capital": "admin",
    "population": 5482,
    "id": 1499532482
  },
  {
    "city": "Mali Iđoš",
    "city_ascii": "Mali Idos",
    "lat": 45.7069,
    "lng": 19.6644,
    "country": "Serbia",
    "iso2": "RS",
    "iso3": "SRB",
    "admin_name": "Mali Iđoš",
    "capital": "admin",
    "population": 5464,
    "id": 1688501809
  },
  {
    "city": "Muramvya",
    "city_ascii": "Muramvya",
    "lat": -3.25,
    "lng": 29.6,
    "country": "Burundi",
    "iso2": "BI",
    "iso3": "BDI",
    "admin_name": "Muramvya",
    "capital": "admin",
    "population": 5458,
    "id": 1108007544
  },
  {
    "city": "Šakiai",
    "city_ascii": "Sakiai",
    "lat": 54.95,
    "lng": 23.05,
    "country": "Lithuania",
    "iso2": "LT",
    "iso3": "LTU",
    "admin_name": "Šakiai",
    "capital": "admin",
    "population": 5440,
    "id": 1440362808
  },
  {
    "city": "Wiltz",
    "city_ascii": "Wiltz",
    "lat": 49.9661,
    "lng": 5.9325,
    "country": "Luxembourg",
    "iso2": "LU",
    "iso3": "LUX",
    "admin_name": "Wiltz",
    "capital": "admin",
    "population": 5427,
    "id": 1442345477
  },
  {
    "city": "Kratovo",
    "city_ascii": "Kratovo",
    "lat": 42.0783,
    "lng": 22.175,
    "country": "North Macedonia",
    "iso2": "MK",
    "iso3": "MKD",
    "admin_name": "Kratovo",
    "capital": "admin",
    "population": 5401,
    "id": 1807262234
  },
  {
    "city": "Kovačica",
    "city_ascii": "Kovacica",
    "lat": 45.1117,
    "lng": 20.6214,
    "country": "Serbia",
    "iso2": "RS",
    "iso3": "SRB",
    "admin_name": "Kovačica",
    "capital": "admin",
    "population": 5398,
    "id": 1688530993
  },
  {
    "city": "Cospicua",
    "city_ascii": "Cospicua",
    "lat": 35.8822,
    "lng": 14.5222,
    "country": "Malta",
    "iso2": "MT",
    "iso3": "MLT",
    "admin_name": "Bormla",
    "capital": "admin",
    "population": 5395,
    "id": 1470541461
  },
  {
    "city": "Medvode",
    "city_ascii": "Medvode",
    "lat": 46.1382,
    "lng": 14.4147,
    "country": "Slovenia",
    "iso2": "SI",
    "iso3": "SVN",
    "admin_name": "Medvode",
    "capital": "admin",
    "population": 5380,
    "id": 1705158152
  },
  {
    "city": "Rapla",
    "city_ascii": "Rapla",
    "lat": 58.9944,
    "lng": 24.8011,
    "country": "Estonia",
    "iso2": "EE",
    "iso3": "EST",
    "admin_name": "Rapla",
    "capital": "admin",
    "population": 5353,
    "id": 1233013333
  },
  {
    "city": "Skuodas",
    "city_ascii": "Skuodas",
    "lat": 56.2667,
    "lng": 21.5333,
    "country": "Lithuania",
    "iso2": "LT",
    "iso3": "LTU",
    "admin_name": "Skuodas",
    "capital": "admin",
    "population": 5346,
    "id": 1440264405
  },
  {
    "city": "Napak",
    "city_ascii": "Napak",
    "lat": 2.1156,
    "lng": 34.2267,
    "country": "Uganda",
    "iso2": "UG",
    "iso3": "UGA",
    "admin_name": "Napak",
    "capital": "admin",
    "population": 5278,
    "id": 1800784014
  },
  {
    "city": "Triesen",
    "city_ascii": "Triesen",
    "lat": 47.1,
    "lng": 9.5333,
    "country": "Liechtenstein",
    "iso2": "LI",
    "iso3": "LIE",
    "admin_name": "Triesen",
    "capital": "admin",
    "population": 5275,
    "id": 1438826448
  },
  {
    "city": "Tarrafal",
    "city_ascii": "Tarrafal",
    "lat": 16.566,
    "lng": -24.357,
    "country": "Cabo Verde",
    "iso2": "CV",
    "iso3": "CPV",
    "admin_name": "Tarrafal de São Nicolau",
    "capital": "admin",
    "population": 5237,
    "id": 1132502171
  },
  {
    "city": "Thinadhoo",
    "city_ascii": "Thinadhoo",
    "lat": 0.5302,
    "lng": 72.9965,
    "country": "Maldives",
    "iso2": "MV",
    "iso3": "MDV",
    "admin_name": "Huvadhuatholhu Dhekunuburi",
    "capital": "admin",
    "population": 5230,
    "id": 1462781201
  },
  {
    "city": "Jõgeva",
    "city_ascii": "Jogeva",
    "lat": 58.7469,
    "lng": 26.4,
    "country": "Estonia",
    "iso2": "EE",
    "iso3": "EST",
    "admin_name": "Jõgeva",
    "capital": "admin",
    "population": 5224,
    "id": 1233192849
  },
  {
    "city": "Kalangala",
    "city_ascii": "Kalangala",
    "lat": -0.3214,
    "lng": 32.2919,
    "country": "Uganda",
    "iso2": "UG",
    "iso3": "UGA",
    "admin_name": "Kalangala",
    "capital": "admin",
    "population": 5200,
    "id": 1800446257
  },
  {
    "city": "Canillo",
    "city_ascii": "Canillo",
    "lat": 42.5667,
    "lng": 1.6,
    "country": "Andorra",
    "iso2": "AD",
    "iso3": "AND",
    "admin_name": "Canillo",
    "capital": "admin",
    "population": 5160,
    "id": 1020594179
  },
  {
    "city": "Slovenske Konjice",
    "city_ascii": "Slovenske Konjice",
    "lat": 46.3383,
    "lng": 15.4233,
    "country": "Slovenia",
    "iso2": "SI",
    "iso3": "SVN",
    "admin_name": "Slovenske Konjice",
    "capital": "admin",
    "population": 5157,
    "id": 1705506460
  },
  {
    "city": "Danilovgrad",
    "city_ascii": "Danilovgrad",
    "lat": 42.61,
    "lng": 19.05,
    "country": "Montenegro",
    "iso2": "ME",
    "iso3": "MNE",
    "admin_name": "Danilovgrad",
    "capital": "admin",
    "population": 5156,
    "id": 1499538261
  },
  {
    "city": "Liquiçá",
    "city_ascii": "Liquica",
    "lat": -8.5935,
    "lng": 125.3273,
    "country": "Timor-Leste",
    "iso2": "TL",
    "iso3": "TLS",
    "admin_name": "Likisá",
    "capital": "admin",
    "population": 5152,
    "id": 1626054379
  },
  {
    "city": "Smiltene",
    "city_ascii": "Smiltene",
    "lat": 57.4333,
    "lng": 25.9,
    "country": "Latvia",
    "iso2": "LV",
    "iso3": "LVA",
    "admin_name": "Smiltene",
    "capital": "admin",
    "population": 5092,
    "id": 1428035157
  },
  {
    "city": "Rogaška Slatina",
    "city_ascii": "Rogaska Slatina",
    "lat": 46.2314,
    "lng": 15.6381,
    "country": "Slovenia",
    "iso2": "SI",
    "iso3": "SVN",
    "admin_name": "Rogaška Slatina",
    "capital": "admin",
    "population": 5082,
    "id": 1705772825
  },
  {
    "city": "Roatán",
    "city_ascii": "Roatan",
    "lat": 16.323,
    "lng": -86.537,
    "country": "Honduras",
    "iso2": "HN",
    "iso3": "HND",
    "admin_name": "Islas de la Bahía",
    "capital": "admin",
    "population": 5070,
    "id": 1340163370
  },
  {
    "city": "Ķekava",
    "city_ascii": "Kekava",
    "lat": 56.8333,
    "lng": 24.2333,
    "country": "Latvia",
    "iso2": "LV",
    "iso3": "LVA",
    "admin_name": "Ķekava",
    "capital": "admin",
    "population": 5034,
    "id": 1428331173
  },
  {
    "city": "Punta Gorda",
    "city_ascii": "Punta Gorda",
    "lat": 16.1005,
    "lng": -88.8074,
    "country": "Belize",
    "iso2": "BZ",
    "iso3": "BLZ",
    "admin_name": "Toledo",
    "capital": "admin",
    "population": 5026,
    "id": 1084536442
  },
  {
    "city": "Palé",
    "city_ascii": "Pale",
    "lat": -1.4069,
    "lng": 5.6322,
    "country": "Equatorial Guinea",
    "iso2": "GQ",
    "iso3": "GNQ",
    "admin_name": "Annobón",
    "capital": "admin",
    "population": 5008,
    "id": 1226970205
  },
  {
    "city": "Žalec",
    "city_ascii": "Zalec",
    "lat": 46.251,
    "lng": 15.1639,
    "country": "Slovenia",
    "iso2": "SI",
    "iso3": "SVN",
    "admin_name": "Žalec",
    "capital": "admin",
    "population": 5004,
    "id": 1705340993
  },
  {
    "city": "Puerto Casado",
    "city_ascii": "Puerto Casado",
    "lat": -22.2896,
    "lng": -57.94,
    "country": "Paraguay",
    "iso2": "PY",
    "iso3": "PRY",
    "admin_name": "Alto Paraguay",
    "capital": "",
    "population": 5000,
    "id": 1600731282
  },
  {
    "city": "Ignalina",
    "city_ascii": "Ignalina",
    "lat": 55.35,
    "lng": 26.1667,
    "country": "Lithuania",
    "iso2": "LT",
    "iso3": "LTU",
    "admin_name": "Ignalina",
    "capital": "admin",
    "population": 4998,
    "id": 1440789779
  },
  {
    "city": "Grevenmacher",
    "city_ascii": "Grevenmacher",
    "lat": 49.6806,
    "lng": 6.4417,
    "country": "Luxembourg",
    "iso2": "LU",
    "iso3": "LUX",
    "admin_name": "Grevenmacher",
    "capital": "admin",
    "population": 4981,
    "id": 1442392954
  },
  {
    "city": "Samtse",
    "city_ascii": "Samtse",
    "lat": 27.0333,
    "lng": 89.0833,
    "country": "Bhutan",
    "iso2": "BT",
    "iso3": "BTN",
    "admin_name": "Samtse",
    "capital": "admin",
    "population": 4981,
    "id": 1064763429
  },
  {
    "city": "Gevgelija",
    "city_ascii": "Gevgelija",
    "lat": 41.1392,
    "lng": 22.5025,
    "country": "North Macedonia",
    "iso2": "MK",
    "iso3": "MKD",
    "admin_name": "Gevgelija",
    "capital": "admin",
    "population": 4967,
    "id": 1807600399
  },
  {
    "city": "Hrastnik",
    "city_ascii": "Hrastnik",
    "lat": 46.1479,
    "lng": 15.1528,
    "country": "Slovenia",
    "iso2": "SI",
    "iso3": "SVN",
    "admin_name": "Hrastnik",
    "capital": "admin",
    "population": 4962,
    "id": 1705818009
  },
  {
    "city": "Šentjur",
    "city_ascii": "Sentjur",
    "lat": 46.2176,
    "lng": 15.396,
    "country": "Slovenia",
    "iso2": "SI",
    "iso3": "SVN",
    "admin_name": "Šentjur",
    "capital": "admin",
    "population": 4940,
    "id": 1705076635
  },
  {
    "city": "Bled",
    "city_ascii": "Bled",
    "lat": 46.3688,
    "lng": 14.114,
    "country": "Slovenia",
    "iso2": "SI",
    "iso3": "SVN",
    "admin_name": "Bled",
    "capital": "admin",
    "population": 4929,
    "id": 1705655016
  },
  {
    "city": "Xagħra",
    "city_ascii": "Xaghra",
    "lat": 36.0503,
    "lng": 14.2675,
    "country": "Malta",
    "iso2": "MT",
    "iso3": "MLT",
    "admin_name": "Xagħra",
    "capital": "admin",
    "population": 4886,
    "id": 1470781874
  },
  {
    "city": "Vrapčište",
    "city_ascii": "Vrapciste",
    "lat": 41.8337,
    "lng": 20.8851,
    "country": "North Macedonia",
    "iso2": "MK",
    "iso3": "MKD",
    "admin_name": "Vrapčište",
    "capital": "admin",
    "population": 4874,
    "id": 1807187187
  },
  {
    "city": "Ordino",
    "city_ascii": "Ordino",
    "lat": 42.555,
    "lng": 1.5331,
    "country": "Andorra",
    "iso2": "AD",
    "iso3": "AND",
    "admin_name": "Ordino",
    "capital": "admin",
    "population": 4858,
    "id": 1020655238
  },
  {
    "city": "Irig",
    "city_ascii": "Irig",
    "lat": 45.1,
    "lng": 19.85,
    "country": "Serbia",
    "iso2": "RS",
    "iso3": "SRB",
    "admin_name": "Irig",
    "capital": "admin",
    "population": 4848,
    "id": 1688660485
  },
  {
    "city": "Bolama",
    "city_ascii": "Bolama",
    "lat": 11.5767,
    "lng": -15.4828,
    "country": "Guinea-Bissau",
    "iso2": "GW",
    "iso3": "GNB",
    "admin_name": "Bolama/Bijagós",
    "capital": "admin",
    "population": 4819,
    "id": 1624958412
  },
  {
    "city": "Brownsweg",
    "city_ascii": "Brownsweg",
    "lat": 5.0164,
    "lng": -55.1669,
    "country": "Suriname",
    "iso2": "SR",
    "iso3": "SUR",
    "admin_name": "Brokopondo",
    "capital": "",
    "population": 4793,
    "id": 1740310469
  },
  {
    "city": "Tuzi",
    "city_ascii": "Tuzi",
    "lat": 42.3656,
    "lng": 19.3314,
    "country": "Montenegro",
    "iso2": "ME",
    "iso3": "MNE",
    "admin_name": "Tuzi",
    "capital": "admin",
    "population": 4748,
    "id": 1499325970
  },
  {
    "city": "Carrick on Shannon",
    "city_ascii": "Carrick on Shannon",
    "lat": 53.944,
    "lng": -8.095,
    "country": "Ireland",
    "iso2": "IE",
    "iso3": "IRL",
    "admin_name": "Leitrim",
    "capital": "admin",
    "population": 4743,
    "id": 1372960774
  },
  {
    "city": "Ilulissat",
    "city_ascii": "Ilulissat",
    "lat": 69.2167,
    "lng": -51.1,
    "country": "Greenland",
    "iso2": "GL",
    "iso3": "GRL",
    "admin_name": "Avannaata",
    "capital": "admin",
    "population": 4737,
    "id": 1304656747
  },
  {
    "city": "Għaxaq",
    "city_ascii": "Ghaxaq",
    "lat": 35.8483,
    "lng": 14.5172,
    "country": "Malta",
    "iso2": "MT",
    "iso3": "MLT",
    "admin_name": "Għaxaq",
    "capital": "admin",
    "population": 4722,
    "id": 1470648445
  },
  {
    "city": "Čoka",
    "city_ascii": "Coka",
    "lat": 45.9333,
    "lng": 20.15,
    "country": "Serbia",
    "iso2": "RS",
    "iso3": "SRB",
    "admin_name": "Čoka",
    "capital": "admin",
    "population": 4707,
    "id": 1688200508
  }
]