[
  {
    "city": "Sing Buri",
    "city_ascii": "Sing Buri",
    "lat": 14.8911,
    "lng": 100.4031,
    "country": "Thailand",
    "iso2": "TH",
    "iso3": "THA",
    "admin_name": "Sing Buri",
    "capital": "admin",
    "population": 17843,
    "id": 1764482111
  },
  {
    "city": "Salaspils",
    "city_ascii": "Salaspils",
    "lat": 56.8667,
    "lng": 24.35,
    "country": "Latvia",
    "iso2": "LV",
    "iso3": "LVA",
    "admin_name": "Salaspils",
    "capital": "admin",
    "population": 17794,
    "id": 1428270898
  },
  {
    "city": "Khaşab",
    "city_ascii": "Khasab",
    "lat": 26.1833,
    "lng": 56.25,
    "country": "Oman",
    "iso2": "OM",
    "iso3": "OMN",
    "admin_name": "Musandam",
    "capital": "admin",
    "population": 17777,
    "id": 1512236141
  },
  {
    "city": "Varvarin",
    "city_ascii": "Varvarin",
    "lat": 43.7167,
    "lng": 21.3667,
    "country": "Serbia",
    "iso2": "RS",
    "iso3": "SRB",
    "admin_name": "Varvarin",
    "capital": "admin",
    "population": 17772,
    "id": 1688871979
  },
  {
    "city": "Prachin Buri",
    "city_ascii": "Prachin Buri",
    "lat": 14.0567,
    "lng": 101.3739,
    "country": "Thailand",
    "iso2": "TH",
    "iso3": "THA",
    "admin_name": "Prachin Buri",
    "capital": "admin",
    "population": 17768,
    "id": 1764262472
  },
  {
    "city": "Chitipa",
    "city_ascii": "Chitipa",
    "lat": -9.7019,
    "lng": 33.27,
    "country": "Malawi",
    "iso2": "MW",
    "iso3": "MWI",
    "admin_name": "Chitipa",
    "capital": "admin",
    "population": 17743,
    "id": 1454611219
  },
  {
    "city": "Ngora",
    "city_ascii": "Ngora",
    "lat": 1.4575,
    "lng": 33.7764,
    "country": "Uganda",
    "iso2": "UG",
    "iso3": "UGA",
    "admin_name": "Ngora",
    "capital": "admin",
    "population": 17700,
    "id": 1800020551
  },
  {
    "city": "Dourbali",
    "city_ascii": "Dourbali",
    "lat": 11.805,
    "lng": 15.8647,
    "country": "Chad",
    "iso2": "TD",
    "iso3": "TCD",
    "admin_name": "Chari-Baguirmi",
    "capital": "",
    "population": 17682,
    "id": 1148000062
  },
  {
    "city": "Tunapuna",
    "city_ascii": "Tunapuna",
    "lat": 10.6333,
    "lng": -61.3833,
    "country": "Trinidad and Tobago",
    "iso2": "TT",
    "iso3": "TTO",
    "admin_name": "Tunapuna/Piarco",
    "capital": "admin",
    "population": 17650,
    "id": 1780508155
  },
  {
    "city": "Ban Mae Ka Hua Thung",
    "city_ascii": "Ban Mae Ka Hua Thung",
    "lat": 19.0942,
    "lng": 99.9136,
    "country": "Thailand",
    "iso2": "TH",
    "iso3": "THA",
    "admin_name": "Phayao",
    "capital": "",
    "population": 17629,
    "id": 1764621599
  },
  {
    "city": "Veliko Gradište",
    "city_ascii": "Veliko Gradiste",
    "lat": 44.75,
    "lng": 21.5167,
    "country": "Serbia",
    "iso2": "RS",
    "iso3": "SRB",
    "admin_name": "Veliko Gradište",
    "capital": "admin",
    "population": 17610,
    "id": 1688050059
  },
  {
    "city": "Bel Air",
    "city_ascii": "Bel Air",
    "lat": -20.2582,
    "lng": 57.7545,
    "country": "Mauritius",
    "iso2": "MU",
    "iso3": "MUS",
    "admin_name": "Flacq",
    "capital": "",
    "population": 17605,
    "id": 1480143096
  },
  {
    "city": "Zamora",
    "city_ascii": "Zamora",
    "lat": -4.0692,
    "lng": -78.9567,
    "country": "Ecuador",
    "iso2": "EC",
    "iso3": "ECU",
    "admin_name": "Zamora-Chinchipe",
    "capital": "admin",
    "population": 17584,
    "id": 1218873167
  },
  {
    "city": "Eldama Ravine",
    "city_ascii": "Eldama Ravine",
    "lat": 0.05,
    "lng": 35.7167,
    "country": "Kenya",
    "iso2": "KE",
    "iso3": "KEN",
    "admin_name": "Baringo",
    "capital": "",
    "population": 17581,
    "id": 1404468256
  },
  {
    "city": "Kisoro",
    "city_ascii": "Kisoro",
    "lat": -1.285,
    "lng": 29.685,
    "country": "Uganda",
    "iso2": "UG",
    "iso3": "UGA",
    "admin_name": "Kisoro",
    "capital": "admin",
    "population": 17561,
    "id": 1800685460
  },
  {
    "city": "Scarborough",
    "city_ascii": "Scarborough",
    "lat": 11.1833,
    "lng": -60.7375,
    "country": "Trinidad and Tobago",
    "iso2": "TT",
    "iso3": "TTO",
    "admin_name": "Tobago",
    "capital": "admin",
    "population": 17537,
    "id": 1780875399
  },
  {
    "city": "Bonnyrigg",
    "city_ascii": "Bonnyrigg",
    "lat": 55.8747,
    "lng": -3.1031,
    "country": "United Kingdom",
    "iso2": "GB",
    "iso3": "GBR",
    "admin_name": "Midlothian",
    "capital": "",
    "population": 17530,
    "id": 1826693791
  },
  {
    "city": "Budva",
    "city_ascii": "Budva",
    "lat": 42.2881,
    "lng": 18.8425,
    "country": "Montenegro",
    "iso2": "ME",
    "iso3": "MNE",
    "admin_name": "Budva",
    "capital": "admin",
    "population": 17479,
    "id": 1499564238
  },
  {
    "city": "Vladimirci",
    "city_ascii": "Vladimirci",
    "lat": 44.6167,
    "lng": 19.7833,
    "country": "Serbia",
    "iso2": "RS",
    "iso3": "SRB",
    "admin_name": "Vladimirci",
    "capital": "admin",
    "population": 17462,
    "id": 1688070989
  },
  {
    "city": "Plungė",
    "city_ascii": "Plunge",
    "lat": 55.9167,
    "lng": 21.85,
    "country": "Lithuania",
    "iso2": "LT",
    "iso3": "LTU",
    "admin_name": "Plungė",
    "capital": "admin",
    "population": 17385,
    "id": 1440542185
  },
  {
    "city": "Viljandi",
    "city_ascii": "Viljandi",
    "lat": 58.3667,
    "lng": 25.6,
    "country": "Estonia",
    "iso2": "EE",
    "iso3": "EST",
    "admin_name": "Viljandi",
    "capital": "admin",
    "population": 17353,
    "id": 1233067368
  },
  {
    "city": "New Amsterdam",
    "city_ascii": "New Amsterdam",
    "lat": 6.25,
    "lng": -57.5167,
    "country": "Guyana",
    "iso2": "GY",
    "iso3": "GUY",
    "admin_name": "East Berbice-Corentyne",
    "capital": "admin",
    "population": 17329,
    "id": 1328195392
  },
  {
    "city": "Namayingo",
    "city_ascii": "Namayingo",
    "lat": 0.345,
    "lng": 33.88,
    "country": "Uganda",
    "iso2": "UG",
    "iso3": "UGA",
    "admin_name": "Namayingo",
    "capital": "",
    "population": 17300,
    "id": 1800364038
  },
  {
    "city": "Krupanj",
    "city_ascii": "Krupanj",
    "lat": 44.3667,
    "lng": 19.3667,
    "country": "Serbia",
    "iso2": "RS",
    "iso3": "SRB",
    "admin_name": "Krupanj",
    "capital": "admin",
    "population": 17295,
    "id": 1688954602
  },
  {
    "city": "Illizi",
    "city_ascii": "Illizi",
    "lat": 26.505,
    "lng": 8.4822,
    "country": "Algeria",
    "iso2": "DZ",
    "iso3": "DZA",
    "admin_name": "Illizi",
    "capital": "admin",
    "population": 17252,
    "id": 1012499058
  },
  {
    "city": "Kretinga",
    "city_ascii": "Kretinga",
    "lat": 55.89,
    "lng": 21.2422,
    "country": "Lithuania",
    "iso2": "LT",
    "iso3": "LTU",
    "admin_name": "Kretinga",
    "capital": "admin",
    "population": 17207,
    "id": 1440720895
  },
  {
    "city": "Trstenik",
    "city_ascii": "Trstenik",
    "lat": 43.6167,
    "lng": 20.9833,
    "country": "Serbia",
    "iso2": "RS",
    "iso3": "SRB",
    "admin_name": "Trstenik",
    "capital": "admin",
    "population": 17180,
    "id": 1688148503
  },
  {
    "city": "Mayuge",
    "city_ascii": "Mayuge",
    "lat": 0.4578,
    "lng": 33.48,
    "country": "Uganda",
    "iso2": "UG",
    "iso3": "UGA",
    "admin_name": "Mayuge",
    "capital": "admin",
    "population": 17151,
    "id": 1800300606
  },
  {
    "city": "Sawankhalok",
    "city_ascii": "Sawankhalok",
    "lat": 17.3099,
    "lng": 99.8263,
    "country": "Thailand",
    "iso2": "TH",
    "iso3": "THA",
    "admin_name": "Sukhothai",
    "capital": "minor",
    "population": 17148,
    "id": 1764710205
  },
  {
    "city": "Laç",
    "city_ascii": "Lac",
    "lat": 41.6353,
    "lng": 19.7131,
    "country": "Albania",
    "iso2": "AL",
    "iso3": "ALB",
    "admin_name": "Lezhë",
    "capital": "",
    "population": 17086,
    "id": 1008762785
  },
  {
    "city": "Sliema",
    "city_ascii": "Sliema",
    "lat": 35.9122,
    "lng": 14.5042,
    "country": "Malta",
    "iso2": "MT",
    "iso3": "MLT",
    "admin_name": "Sliema",
    "capital": "admin",
    "population": 16854,
    "id": 1470229986
  },
  {
    "city": "Keetmanshoop",
    "city_ascii": "Keetmanshoop",
    "lat": -26.5786,
    "lng": 18.1333,
    "country": "Namibia",
    "iso2": "NA",
    "iso3": "NAM",
    "admin_name": "ǁKaras",
    "capital": "admin",
    "population": 16800,
    "id": 1516607376
  },
  {
    "city": "Astara",
    "city_ascii": "Astara",
    "lat": 38.4561,
    "lng": 48.8786,
    "country": "Azerbaijan",
    "iso2": "AZ",
    "iso3": "AZE",
    "admin_name": "Astara",
    "capital": "admin",
    "population": 16800,
    "id": 1031376971
  },
  {
    "city": "Kaliro",
    "city_ascii": "Kaliro",
    "lat": 0.8944,
    "lng": 33.4994,
    "country": "Uganda",
    "iso2": "UG",
    "iso3": "UGA",
    "admin_name": "Kaliro",
    "capital": "admin",
    "population": 16796,
    "id": 1800764757
  },
  {
    "city": "Marib",
    "city_ascii": "Marib",
    "lat": 15.4606,
    "lng": 45.3261,
    "country": "Yemen",
    "iso2": "YE",
    "iso3": "YEM",
    "admin_name": "Ma’rib",
    "capital": "admin",
    "population": 16794,
    "id": 1887153216
  },
  {
    "city": "Connahs Quay",
    "city_ascii": "Connahs Quay",
    "lat": 53.218,
    "lng": -3.057,
    "country": "United Kingdom",
    "iso2": "GB",
    "iso3": "GBR",
    "admin_name": "Flintshire",
    "capital": "",
    "population": 16771,
    "id": 1826159536
  },
  {
    "city": "Maardu",
    "city_ascii": "Maardu",
    "lat": 59.4781,
    "lng": 25.0161,
    "country": "Estonia",
    "iso2": "EE",
    "iso3": "EST",
    "admin_name": "Maardu",
    "capital": "minor",
    "population": 16750,
    "id": 1233565021
  },
  {
    "city": "Kukës",
    "city_ascii": "Kukes",
    "lat": 42.0833,
    "lng": 20.4167,
    "country": "Albania",
    "iso2": "AL",
    "iso3": "ALB",
    "admin_name": "Kukës",
    "capital": "admin",
    "population": 16719,
    "id": 1008649172
  },
  {
    "city": "Ocho Rios",
    "city_ascii": "Ocho Rios",
    "lat": 18.4167,
    "lng": -77.1167,
    "country": "Jamaica",
    "iso2": "JM",
    "iso3": "JAM",
    "admin_name": "Saint Ann",
    "capital": "",
    "population": 16671,
    "id": 1388472214
  },
  {
    "city": "Phrae",
    "city_ascii": "Phrae",
    "lat": 18.1453,
    "lng": 100.1419,
    "country": "Thailand",
    "iso2": "TH",
    "iso3": "THA",
    "admin_name": "Phrae",
    "capital": "admin",
    "population": 16668,
    "id": 1764209592
  },
  {
    "city": "Zveçan",
    "city_ascii": "Zvecan",
    "lat": 42.9,
    "lng": 20.8333,
    "country": "Kosovo",
    "iso2": "XK",
    "iso3": "XKS",
    "admin_name": "Zveçan",
    "capital": "admin",
    "population": 16650,
    "id": 1901208362
  },
  {
    "city": "Ban Na Sai",
    "city_ascii": "Ban Na Sai",
    "lat": 17.7334,
    "lng": 98.9513,
    "country": "Thailand",
    "iso2": "TH",
    "iso3": "THA",
    "admin_name": "Lamphun",
    "capital": "",
    "population": 16645,
    "id": 1764024755
  },
  {
    "city": "Añisoc",
    "city_ascii": "Anisoc",
    "lat": 1.85,
    "lng": 10.7667,
    "country": "Equatorial Guinea",
    "iso2": "GQ",
    "iso3": "GNQ",
    "admin_name": "Wele-Nzas",
    "capital": "",
    "population": 16626,
    "id": 1226309663
  },
  {
    "city": "Micoud",
    "city_ascii": "Micoud",
    "lat": 13.819,
    "lng": -60.9,
    "country": "Saint Lucia",
    "iso2": "LC",
    "iso3": "LCA",
    "admin_name": "Micoud",
    "capital": "",
    "population": 16620,
    "id": 1662284739
  },
  {
    "city": "Tukums",
    "city_ascii": "Tukums",
    "lat": 56.9667,
    "lng": 23.15,
    "country": "Latvia",
    "iso2": "LV",
    "iso3": "LVA",
    "admin_name": "Tukums",
    "capital": "admin",
    "population": 16597,
    "id": 1428304262
  },
  {
    "city": "Qusar",
    "city_ascii": "Qusar",
    "lat": 41.4264,
    "lng": 48.4356,
    "country": "Azerbaijan",
    "iso2": "AZ",
    "iso3": "AZE",
    "admin_name": "Qusar",
    "capital": "admin",
    "population": 16500,
    "id": 1031059559
  },
  {
    "city": "Bordj Mokhtar",
    "city_ascii": "Bordj Mokhtar",
    "lat": 21.3289,
    "lng": 0.9542,
    "country": "Algeria",
    "iso2": "DZ",
    "iso3": "DZA",
    "admin_name": "Bordj Badji Mokhtar",
    "capital": "admin",
    "population": 16437,
    "id": 1012945794
  },
  {
    "city": "Greenville",
    "city_ascii": "Greenville",
    "lat": 5.0167,
    "lng": -9.0333,
    "country": "Liberia",
    "iso2": "LR",
    "iso3": "LBR",
    "admin_name": "Sinoe",
    "capital": "admin",
    "population": 16434,
    "id": 1430362799
  },
  {
    "city": "Ntungamo",
    "city_ascii": "Ntungamo",
    "lat": -0.8819,
    "lng": 30.2653,
    "country": "Uganda",
    "iso2": "UG",
    "iso3": "UGA",
    "admin_name": "Ntungamo",
    "capital": "admin",
    "population": 16400,
    "id": 1800042819
  },
  {
    "city": "Freienbach",
    "city_ascii": "Freienbach",
    "lat": 47.2,
    "lng": 8.75,
    "country": "Switzerland",
    "iso2": "CH",
    "iso3": "CHE",
    "admin_name": "Schwyz",
    "capital": "",
    "population": 16391,
    "id": 1756905696
  }
]