[
  {
    "city": "Şərur",
    "city_ascii": "Sarur",
    "lat": 39.5544,
    "lng": 44.9826,
    "country": "Azerbaijan",
    "iso2": "AZ",
    "iso3": "AZE",
    "admin_name": "Şərur",
    "capital": "admin",
    "population": "",
    "id": 1031386825
  },
  {
    "city": "Tutong",
    "city_ascii": "Tutong",
    "lat": 4.8067,
    "lng": 114.6592,
    "country": "Brunei",
    "iso2": "BN",
    "iso3": "BRN",
    "admin_name": "Tutong",
    "capital": "admin",
    "population": "",
    "id": 1096181037
  },
  {
    "city": "Pemagatshel",
    "city_ascii": "Pemagatshel",
    "lat": 27.0333,
    "lng": 91.45,
    "country": "Bhutan",
    "iso2": "BT",
    "iso3": "BTN",
    "admin_name": "Pemagatshel",
    "capital": "admin",
    "population": "",
    "id": 1064215849
  },
  {
    "city": "Gasa",
    "city_ascii": "Gasa",
    "lat": 27.9167,
    "lng": 89.6833,
    "country": "Bhutan",
    "iso2": "BT",
    "iso3": "BTN",
    "admin_name": "Gasa",
    "capital": "admin",
    "population": "",
    "id": 1064761583
  },
  {
    "city": "Haa",
    "city_ascii": "Haa",
    "lat": 27.3825,
    "lng": 89.285,
    "country": "Bhutan",
    "iso2": "BT",
    "iso3": "BTN",
    "admin_name": "Haa",
    "capital": "admin",
    "population": "",
    "id": 1064717667
  },
  {
    "city": "Lhuentse",
    "city_ascii": "Lhuentse",
    "lat": 27.65,
    "lng": 91.15,
    "country": "Bhutan",
    "iso2": "BT",
    "iso3": "BTN",
    "admin_name": "Lhuentse",
    "capital": "admin",
    "population": "",
    "id": 1064227529
  },
  {
    "city": "Tsirang",
    "city_ascii": "Tsirang",
    "lat": 27.0219,
    "lng": 90.1229,
    "country": "Bhutan",
    "iso2": "BT",
    "iso3": "BTN",
    "admin_name": "Tsirang",
    "capital": "admin",
    "population": "",
    "id": 1064617460
  },
  {
    "city": "Picos",
    "city_ascii": "Picos",
    "lat": 15.083,
    "lng": -23.632,
    "country": "Cabo Verde",
    "iso2": "CV",
    "iso3": "CPV",
    "admin_name": "São Salvador do Mundo",
    "capital": "admin",
    "population": "",
    "id": 1132670996
  },
  {
    "city": "João Teves",
    "city_ascii": "Joao Teves",
    "lat": 15.068,
    "lng": -23.589,
    "country": "Cabo Verde",
    "iso2": "CV",
    "iso3": "CPV",
    "admin_name": "São Lourenço dos Órgãos",
    "capital": "admin",
    "population": "",
    "id": 1132758433
  },
  {
    "city": "Igreja",
    "city_ascii": "Igreja",
    "lat": 15.0339,
    "lng": -24.325,
    "country": "Cabo Verde",
    "iso2": "CV",
    "iso3": "CPV",
    "admin_name": "Mosteiros",
    "capital": "admin",
    "population": "",
    "id": 1132174768
  },
  {
    "city": "Ribeira Brava",
    "city_ascii": "Ribeira Brava",
    "lat": 16.615,
    "lng": -24.299,
    "country": "Cabo Verde",
    "iso2": "CV",
    "iso3": "CPV",
    "admin_name": "Ribeira Brava",
    "capital": "admin",
    "population": "",
    "id": 1132498214
  },
  {
    "city": "Nova Sintra",
    "city_ascii": "Nova Sintra",
    "lat": 14.871,
    "lng": -24.696,
    "country": "Cabo Verde",
    "iso2": "CV",
    "iso3": "CPV",
    "admin_name": "Brava",
    "capital": "admin",
    "population": "",
    "id": 1132634480
  },
  {
    "city": "Pombas",
    "city_ascii": "Pombas",
    "lat": 17.149,
    "lng": -25.015,
    "country": "Cabo Verde",
    "iso2": "CV",
    "iso3": "CPV",
    "admin_name": "Paul",
    "capital": "admin",
    "population": "",
    "id": 1132720315
  },
  {
    "city": "Cova Figueira",
    "city_ascii": "Cova Figueira",
    "lat": 14.89,
    "lng": -24.294,
    "country": "Cabo Verde",
    "iso2": "CV",
    "iso3": "CPV",
    "admin_name": "Santa Catarina do Fogo",
    "capital": "admin",
    "population": "",
    "id": 1132510430
  },
  {
    "city": "Sandur",
    "city_ascii": "Sandur",
    "lat": 61.8344,
    "lng": -6.8171,
    "country": "Faroe Islands",
    "iso2": "FO",
    "iso3": "FRO",
    "admin_name": "Sandur",
    "capital": "admin",
    "population": "",
    "id": 1234438421
  },
  {
    "city": "Fuglafjørður",
    "city_ascii": "Fuglafjordhur",
    "lat": 62.2448,
    "lng": -6.815,
    "country": "Faroe Islands",
    "iso2": "FO",
    "iso3": "FRO",
    "admin_name": "Fuglafjarður",
    "capital": "admin",
    "population": "",
    "id": 1234308038
  },
  {
    "city": "Hov",
    "city_ascii": "Hov",
    "lat": 61.5068,
    "lng": -6.7599,
    "country": "Faroe Islands",
    "iso2": "FO",
    "iso3": "FRO",
    "admin_name": "Hov",
    "capital": "admin",
    "population": "",
    "id": 1234279154
  },
  {
    "city": "Vágur",
    "city_ascii": "Vagur",
    "lat": 61.4733,
    "lng": -6.8175,
    "country": "Faroe Islands",
    "iso2": "FO",
    "iso3": "FRO",
    "admin_name": "Vágur",
    "capital": "admin",
    "population": "",
    "id": 1234642477
  },
  {
    "city": "Saltangará",
    "city_ascii": "Saltangara",
    "lat": 62.1156,
    "lng": -6.7206,
    "country": "Faroe Islands",
    "iso2": "FO",
    "iso3": "FRO",
    "admin_name": "Runavík",
    "capital": "admin",
    "population": "",
    "id": 1234473077
  },
  {
    "city": "Kvívík",
    "city_ascii": "Kvivik",
    "lat": 62.1186,
    "lng": -7.0737,
    "country": "Faroe Islands",
    "iso2": "FO",
    "iso3": "FRO",
    "admin_name": "Kvívík",
    "capital": "admin",
    "population": "",
    "id": 1234955585
  },
  {
    "city": "Sumba",
    "city_ascii": "Sumba",
    "lat": 61.4055,
    "lng": -6.709,
    "country": "Faroe Islands",
    "iso2": "FO",
    "iso3": "FRO",
    "admin_name": "Sumba",
    "capital": "admin",
    "population": "",
    "id": 1234926212
  },
  {
    "city": "Viðareiði",
    "city_ascii": "Vidhareidhi",
    "lat": 62.36,
    "lng": -6.5313,
    "country": "Faroe Islands",
    "iso2": "FO",
    "iso3": "FRO",
    "admin_name": "Viðareiði",
    "capital": "admin",
    "population": "",
    "id": 1234512915
  },
  {
    "city": "Norðragøta",
    "city_ascii": "Nordhragota",
    "lat": 62.199,
    "lng": -6.7432,
    "country": "Faroe Islands",
    "iso2": "FO",
    "iso3": "FRO",
    "admin_name": "Eystur",
    "capital": "admin",
    "population": "",
    "id": 1234729250
  },
  {
    "city": "Toftir",
    "city_ascii": "Toftir",
    "lat": 62.0978,
    "lng": -6.7369,
    "country": "Faroe Islands",
    "iso2": "FO",
    "iso3": "FRO",
    "admin_name": "Nes",
    "capital": "admin",
    "population": "",
    "id": 1234200740
  },
  {
    "city": "Kirkja",
    "city_ascii": "Kirkja",
    "lat": 62.3263,
    "lng": -6.3238,
    "country": "Faroe Islands",
    "iso2": "FO",
    "iso3": "FRO",
    "admin_name": "Fugloy",
    "capital": "admin",
    "population": "",
    "id": 1234508245
  },
  {
    "city": "Eiði",
    "city_ascii": "Eidhi",
    "lat": 62.2995,
    "lng": -7.0924,
    "country": "Faroe Islands",
    "iso2": "FO",
    "iso3": "FRO",
    "admin_name": "Eiði",
    "capital": "admin",
    "population": "",
    "id": 1234150922
  },
  {
    "city": "Sandavágur",
    "city_ascii": "Sandavagur",
    "lat": 62.0537,
    "lng": -7.1498,
    "country": "Faroe Islands",
    "iso2": "FO",
    "iso3": "FRO",
    "admin_name": "Vágar",
    "capital": "admin",
    "population": "",
    "id": 1234210554
  },
  {
    "city": "Skúvoy",
    "city_ascii": "Skuvoy",
    "lat": 61.771,
    "lng": -6.805,
    "country": "Faroe Islands",
    "iso2": "FO",
    "iso3": "FRO",
    "admin_name": "Skúvoy",
    "capital": "admin",
    "population": "",
    "id": 1234962897
  },
  {
    "city": "Skálavík",
    "city_ascii": "Skalavik",
    "lat": 61.8314,
    "lng": -6.6623,
    "country": "Faroe Islands",
    "iso2": "FO",
    "iso3": "FRO",
    "admin_name": "Skálavík",
    "capital": "admin",
    "population": "",
    "id": 1234815917
  },
  {
    "city": "Sørvágur",
    "city_ascii": "Sorvagur",
    "lat": 62.0717,
    "lng": -7.3066,
    "country": "Faroe Islands",
    "iso2": "FO",
    "iso3": "FRO",
    "admin_name": "Sørvágur",
    "capital": "admin",
    "population": "",
    "id": 1234081530
  },
  {
    "city": "Vestmanna",
    "city_ascii": "Vestmanna",
    "lat": 62.1548,
    "lng": -7.169,
    "country": "Faroe Islands",
    "iso2": "FO",
    "iso3": "FRO",
    "admin_name": "Vestmanna",
    "capital": "admin",
    "population": "",
    "id": 1234694837
  },
  {
    "city": "Strendur",
    "city_ascii": "Strendur",
    "lat": 62.1096,
    "lng": -6.7617,
    "country": "Faroe Islands",
    "iso2": "FO",
    "iso3": "FRO",
    "admin_name": "Sjóvar",
    "capital": "admin",
    "population": "",
    "id": 1234814533
  },
  {
    "city": "Tvøroyri",
    "city_ascii": "Tvoroyri",
    "lat": 61.5544,
    "lng": -6.8063,
    "country": "Faroe Islands",
    "iso2": "FO",
    "iso3": "FRO",
    "admin_name": "Tvøroyri",
    "capital": "admin",
    "population": "",
    "id": 1234871801
  },
  {
    "city": "Húsavík",
    "city_ascii": "Husavik",
    "lat": 61.8099,
    "lng": -6.6813,
    "country": "Faroe Islands",
    "iso2": "FO",
    "iso3": "FRO",
    "admin_name": "Húsavík",
    "capital": "admin",
    "population": "",
    "id": 1234224518
  },
  {
    "city": "Kunoy",
    "city_ascii": "Kunoy",
    "lat": 62.2917,
    "lng": -6.6702,
    "country": "Faroe Islands",
    "iso2": "FO",
    "iso3": "FRO",
    "admin_name": "Kunoy",
    "capital": "admin",
    "population": "",
    "id": 1234932703
  },
  {
    "city": "Oyrarbakki",
    "city_ascii": "Oyrarbakki",
    "lat": 62.2079,
    "lng": -6.9997,
    "country": "Faroe Islands",
    "iso2": "FO",
    "iso3": "FRO",
    "admin_name": "Sunda",
    "capital": "admin",
    "population": "",
    "id": 1234924029
  },
  {
    "city": "Sefwi Wiawso",
    "city_ascii": "Sefwi Wiawso",
    "lat": 6.2158,
    "lng": -2.485,
    "country": "Ghana",
    "iso2": "GH",
    "iso3": "GHA",
    "admin_name": "Western North",
    "capital": "admin",
    "population": "",
    "id": 1288994228
  },
  {
    "city": "Siaya",
    "city_ascii": "Siaya",
    "lat": 0.0667,
    "lng": 34.2833,
    "country": "Kenya",
    "iso2": "KE",
    "iso3": "KEN",
    "admin_name": "Siaya",
    "capital": "admin",
    "population": "",
    "id": 1404162576
  },
  {
    "city": "Ol Kalou",
    "city_ascii": "Ol Kalou",
    "lat": -0.273,
    "lng": 36.378,
    "country": "Kenya",
    "iso2": "KE",
    "iso3": "KEN",
    "admin_name": "Nyandarua",
    "capital": "admin",
    "population": "",
    "id": 1404930645
  },
  {
    "city": "Kapenguria",
    "city_ascii": "Kapenguria",
    "lat": 1.2333,
    "lng": 35.1167,
    "country": "Kenya",
    "iso2": "KE",
    "iso3": "KEN",
    "admin_name": "West Pokot",
    "capital": "admin",
    "population": "",
    "id": 1404228137
  },
  {
    "city": "Pailin",
    "city_ascii": "Pailin",
    "lat": 12.8489,
    "lng": 102.6093,
    "country": "Cambodia",
    "iso2": "KH",
    "iso3": "KHM",
    "admin_name": "Pailin",
    "capital": "admin",
    "population": "",
    "id": 1116050327
  },
  {
    "city": "Ta Khmau",
    "city_ascii": "Ta Khmau",
    "lat": 11.4833,
    "lng": 104.95,
    "country": "Cambodia",
    "iso2": "KH",
    "iso3": "KHM",
    "admin_name": "Kandal",
    "capital": "admin",
    "population": "",
    "id": 1116571704
  },
  {
    "city": "Charlotte Amalie",
    "city_ascii": "Charlotte Amalie",
    "lat": 18.342,
    "lng": -64.9331,
    "country": "U.S. Virgin Islands",
    "iso2": "VI",
    "iso3": "VIR",
    "admin_name": "Virgin Islands",
    "capital": "primary",
    "population": "",
    "id": 1850037473
  }
]