[
  {
    "city": "Yinchuan",
    "city_ascii": "Yinchuan",
    "lat": 38.485,
    "lng": 106.225,
    "country": "China",
    "iso2": "CN",
    "iso3": "CHN",
    "admin_name": "Ningxia",
    "capital": "admin",
    "population": 1901793,
    "id": 1156359072
  },
  {
    "city": "Blantyre",
    "city_ascii": "Blantyre",
    "lat": -15.7861,
    "lng": 35.0058,
    "country": "Malawi",
    "iso2": "MW",
    "iso3": "MWI",
    "admin_name": "Blantyre",
    "capital": "admin",
    "population": 1895973,
    "id": 1454145012
  },
  {
    "city": "Tainan",
    "city_ascii": "Tainan",
    "lat": 22.9833,
    "lng": 120.1833,
    "country": "Taiwan",
    "iso2": "TW",
    "iso3": "TWN",
    "admin_name": "Tainan",
    "capital": "admin",
    "population": 1874686,
    "id": 1158061376
  },
  {
    "city": "Port Harcourt",
    "city_ascii": "Port Harcourt",
    "lat": 4.8242,
    "lng": 7.0336,
    "country": "Nigeria",
    "iso2": "NG",
    "iso3": "NGA",
    "admin_name": "Rivers",
    "capital": "admin",
    "population": 1865000,
    "id": 1566070649
  },
  {
    "city": "Warsaw",
    "city_ascii": "Warsaw",
    "lat": 52.23,
    "lng": 21.0111,
    "country": "Poland",
    "iso2": "PL",
    "iso3": "POL",
    "admin_name": "Mazowieckie",
    "capital": "primary",
    "population": 1860281,
    "id": 1616024847
  },
  {
    "city": "San Juan",
    "city_ascii": "San Juan",
    "lat": 18.3985,
    "lng": -66.061,
    "country": "Puerto Rico",
    "iso2": "PR",
    "iso3": "PRI",
    "admin_name": "Puerto Rico",
    "capital": "primary",
    "population": 1814587,
    "id": 1630035577
  },
  {
    "city": "Mersin",
    "city_ascii": "Mersin",
    "lat": 36.8,
    "lng": 34.6333,
    "country": "Turkey",
    "iso2": "TR",
    "iso3": "TUR",
    "admin_name": "Mersin",
    "capital": "admin",
    "population": 1814468,
    "id": 1792520282
  },
  {
    "city": "Mosul",
    "city_ascii": "Mosul",
    "lat": 36.34,
    "lng": 43.13,
    "country": "Iraq",
    "iso2": "IQ",
    "iso3": "IRQ",
    "admin_name": "Nīnawá",
    "capital": "admin",
    "population": 1792000,
    "id": 1368194914
  },
  {
    "city": "Lubumbashi",
    "city_ascii": "Lubumbashi",
    "lat": -11.6647,
    "lng": 27.4794,
    "country": "Congo (Kinshasa)",
    "iso2": "CD",
    "iso3": "COD",
    "admin_name": "Haut-Katanga",
    "capital": "admin",
    "population": 1786397,
    "id": 1180506234
  },
  {
    "city": "Davao",
    "city_ascii": "Davao",
    "lat": 7.07,
    "lng": 125.6,
    "country": "Philippines",
    "iso2": "PH",
    "iso3": "PHL",
    "admin_name": "Davao",
    "capital": "admin",
    "population": 1776949,
    "id": 1608906877
  },
  {
    "city": "Curitiba",
    "city_ascii": "Curitiba",
    "lat": -25.4297,
    "lng": -49.2711,
    "country": "Brazil",
    "iso2": "BR",
    "iso3": "BRA",
    "admin_name": "Paraná",
    "capital": "admin",
    "population": 1773733,
    "id": 1076701712
  },
  {
    "city": "Adana",
    "city_ascii": "Adana",
    "lat": 37,
    "lng": 35.3213,
    "country": "Turkey",
    "iso2": "TR",
    "iso3": "TUR",
    "admin_name": "Adana",
    "capital": "admin",
    "population": 1765981,
    "id": 1792783772
  },
  {
    "city": "Quito",
    "city_ascii": "Quito",
    "lat": -0.22,
    "lng": -78.5125,
    "country": "Ecuador",
    "iso2": "EC",
    "iso3": "ECU",
    "admin_name": "Pichincha",
    "capital": "primary",
    "population": 1763275,
    "id": 1218441993
  },
  {
    "city": "Brazzaville",
    "city_ascii": "Brazzaville",
    "lat": -4.2694,
    "lng": 15.2711,
    "country": "Congo (Brazzaville)",
    "iso2": "CG",
    "iso3": "COG",
    "admin_name": "Brazzaville",
    "capital": "primary",
    "population": 1733263,
    "id": 1178340306
  },
  {
    "city": "Diyarbakır",
    "city_ascii": "Diyarbakir",
    "lat": 37.91,
    "lng": 40.24,
    "country": "Turkey",
    "iso2": "TR",
    "iso3": "TUR",
    "admin_name": "Diyarbakır",
    "capital": "admin",
    "population": 1732396,
    "id": 1792536241
  },
  {
    "city": "Indianapolis",
    "city_ascii": "Indianapolis",
    "lat": 39.7771,
    "lng": -86.1458,
    "country": "United States",
    "iso2": "US",
    "iso3": "USA",
    "admin_name": "Indiana",
    "capital": "admin",
    "population": 1729849,
    "id": 1840030084
  },
  {
    "city": "Masqaţ",
    "city_ascii": "Masqat",
    "lat": 23.5889,
    "lng": 58.4083,
    "country": "Oman",
    "iso2": "OM",
    "iso3": "OMN",
    "admin_name": "Masqaţ",
    "capital": "",
    "population": 1720000,
    "id": 1512001294
  },
  {
    "city": "Montevideo",
    "city_ascii": "Montevideo",
    "lat": -34.8836,
    "lng": -56.1819,
    "country": "Uruguay",
    "iso2": "UY",
    "iso3": "URY",
    "admin_name": "Montevideo",
    "capital": "primary",
    "population": 1719453,
    "id": 1858107000
  },
  {
    "city": "Cincinnati",
    "city_ascii": "Cincinnati",
    "lat": 39.1413,
    "lng": -84.506,
    "country": "United States",
    "iso2": "US",
    "iso3": "USA",
    "admin_name": "Ohio",
    "capital": "",
    "population": 1692702,
    "id": 1840003814
  },
  {
    "city": "Tegucigalpa",
    "city_ascii": "Tegucigalpa",
    "lat": 14.1058,
    "lng": -87.2047,
    "country": "Honduras",
    "iso2": "HN",
    "iso3": "HND",
    "admin_name": "Francisco Morazán",
    "capital": "primary",
    "population": 1682725,
    "id": 1340344059
  },
  {
    "city": "Kampala",
    "city_ascii": "Kampala",
    "lat": 0.3136,
    "lng": 32.5811,
    "country": "Uganda",
    "iso2": "UG",
    "iso3": "UGA",
    "admin_name": "Kampala",
    "capital": "primary",
    "population": 1680600,
    "id": 1800406299
  },
  {
    "city": "Conakry",
    "city_ascii": "Conakry",
    "lat": 9.5092,
    "lng": -13.7122,
    "country": "Guinea",
    "iso2": "GN",
    "iso3": "GIN",
    "admin_name": "Conakry",
    "capital": "primary",
    "population": 1667864,
    "id": 1324568159
  },
  {
    "city": "Caloocan City",
    "city_ascii": "Caloocan City",
    "lat": 14.65,
    "lng": 120.97,
    "country": "Philippines",
    "iso2": "PH",
    "iso3": "PHL",
    "admin_name": "Caloocan",
    "capital": "admin",
    "population": 1661584,
    "id": 1608897690
  },
  {
    "city": "Masvingo",
    "city_ascii": "Masvingo",
    "lat": -20.0744,
    "lng": 30.8328,
    "country": "Zimbabwe",
    "iso2": "ZW",
    "iso3": "ZWE",
    "admin_name": "Masvingo",
    "capital": "admin",
    "population": 1638528,
    "id": 1716049475
  },
  {
    "city": "Zhongli",
    "city_ascii": "Zhongli",
    "lat": 24.965,
    "lng": 121.2168,
    "country": "Taiwan",
    "iso2": "TW",
    "iso3": "TWN",
    "admin_name": "Taoyuan",
    "capital": "",
    "population": 1632616,
    "id": 1158025380
  },
  {
    "city": "Novosibirsk",
    "city_ascii": "Novosibirsk",
    "lat": 55.05,
    "lng": 82.95,
    "country": "Russia",
    "iso2": "RU",
    "iso3": "RUS",
    "admin_name": "Novosibirskaya Oblast’",
    "capital": "admin",
    "population": 1625631,
    "id": 1643399240
  },
  {
    "city": "Bilāspur",
    "city_ascii": "Bilaspur",
    "lat": 22.09,
    "lng": 82.15,
    "country": "India",
    "iso2": "IN",
    "iso3": "IND",
    "admin_name": "Chhattīsgarh",
    "capital": "",
    "population": 1625502,
    "id": 1356820491
  },
  {
    "city": "Semarang",
    "city_ascii": "Semarang",
    "lat": -6.99,
    "lng": 110.4225,
    "country": "Indonesia",
    "iso2": "ID",
    "iso3": "IDN",
    "admin_name": "Jawa Tengah",
    "capital": "admin",
    "population": 1621384,
    "id": 1360745537
  },
  {
    "city": "Rājshāhi",
    "city_ascii": "Rajshahi",
    "lat": 24.3667,
    "lng": 88.6,
    "country": "Bangladesh",
    "iso2": "BD",
    "iso3": "BGD",
    "admin_name": "Rājshāhi",
    "capital": "admin",
    "population": 1600000,
    "id": 1050547831
  },
  {
    "city": "Balandougou",
    "city_ascii": "Balandougou",
    "lat": 13.3558,
    "lng": -9.5517,
    "country": "Mali",
    "iso2": "ML",
    "iso3": "MLI",
    "admin_name": "Kayes",
    "capital": "",
    "population": 1596882,
    "id": 1466367944
  },
  {
    "city": "Valencia",
    "city_ascii": "Valencia",
    "lat": 39.47,
    "lng": -0.3764,
    "country": "Spain",
    "iso2": "ES",
    "iso3": "ESP",
    "admin_name": "Valencia",
    "capital": "admin",
    "population": 1595000,
    "id": 1724981666
  },
  {
    "city": "León de los Aldama",
    "city_ascii": "Leon de los Aldama",
    "lat": 21.1167,
    "lng": -101.6833,
    "country": "Mexico",
    "iso2": "MX",
    "iso3": "MEX",
    "admin_name": "Guanajuato",
    "capital": "minor",
    "population": 1579803,
    "id": 1484811199
  },
  {
    "city": "Puebla",
    "city_ascii": "Puebla",
    "lat": 19.0333,
    "lng": -98.1833,
    "country": "Mexico",
    "iso2": "MX",
    "iso3": "MEX",
    "admin_name": "Puebla",
    "capital": "admin",
    "population": 1576259,
    "id": 1484416394
  },
  {
    "city": "Shīrāz",
    "city_ascii": "Shiraz",
    "lat": 29.61,
    "lng": 52.5425,
    "country": "Iran",
    "iso2": "IR",
    "iso3": "IRN",
    "admin_name": "Fārs",
    "capital": "admin",
    "population": 1565572,
    "id": 1364432238
  },
  {
    "city": "Tabrīz",
    "city_ascii": "Tabriz",
    "lat": 38.0814,
    "lng": 46.3006,
    "country": "Iran",
    "iso2": "IR",
    "iso3": "IRN",
    "admin_name": "Āz̄arbāyjān-e Sharqī",
    "capital": "admin",
    "population": 1558693,
    "id": 1364141756
  },
  {
    "city": "Jamshedpur",
    "city_ascii": "Jamshedpur",
    "lat": 22.7925,
    "lng": 86.1842,
    "country": "India",
    "iso2": "IN",
    "iso3": "IND",
    "admin_name": "Jhārkhand",
    "capital": "",
    "population": 1558000,
    "id": 1356501259
  },
  {
    "city": "Maracaibo",
    "city_ascii": "Maracaibo",
    "lat": 10.6333,
    "lng": -71.6333,
    "country": "Venezuela",
    "iso2": "VE",
    "iso3": "VEN",
    "admin_name": "Zulia",
    "capital": "admin",
    "population": 1551539,
    "id": 1862072711
  },
  {
    "city": "Sofia",
    "city_ascii": "Sofia",
    "lat": 42.7,
    "lng": 23.33,
    "country": "Bulgaria",
    "iso2": "BG",
    "iso3": "BGR",
    "admin_name": "Sofia-Grad",
    "capital": "primary",
    "population": 1547779,
    "id": 1100762037
  },
  {
    "city": "San José",
    "city_ascii": "San Jose",
    "lat": 9.9325,
    "lng": -84.08,
    "country": "Costa Rica",
    "iso2": "CR",
    "iso3": "CRI",
    "admin_name": "San José",
    "capital": "primary",
    "population": 1543000,
    "id": 1188749877
  },
  {
    "city": "Palembang",
    "city_ascii": "Palembang",
    "lat": -2.9861,
    "lng": 104.7556,
    "country": "Indonesia",
    "iso2": "ID",
    "iso3": "IDN",
    "admin_name": "Sumatera Selatan",
    "capital": "admin",
    "population": 1535952,
    "id": 1360902897
  },
  {
    "city": "Kōbe",
    "city_ascii": "Kobe",
    "lat": 34.69,
    "lng": 135.1956,
    "country": "Japan",
    "iso2": "JP",
    "iso3": "JPN",
    "admin_name": "Hyōgo",
    "capital": "admin",
    "population": 1521707,
    "id": 1392978082
  },
  {
    "city": "Kigali",
    "city_ascii": "Kigali",
    "lat": -1.9439,
    "lng": 30.0594,
    "country": "Rwanda",
    "iso2": "RW",
    "iso3": "RWA",
    "admin_name": "Kigali",
    "capital": "primary",
    "population": 1518632,
    "id": 1646923541
  },
  {
    "city": "Panama City",
    "city_ascii": "Panama City",
    "lat": 8.9833,
    "lng": -79.5167,
    "country": "Panama",
    "iso2": "PA",
    "iso3": "PAN",
    "admin_name": "Panamá",
    "capital": "primary",
    "population": 1500189,
    "id": 1591672475
  },
  {
    "city": "Gwangju",
    "city_ascii": "Gwangju",
    "lat": 35.1653,
    "lng": 126.8486,
    "country": "Korea, South",
    "iso2": "KR",
    "iso3": "KOR",
    "admin_name": "Gwangju",
    "capital": "admin",
    "population": 1490092,
    "id": 1410000087
  },
  {
    "city": "Katako-Kombe",
    "city_ascii": "Katako-Kombe",
    "lat": -3.4,
    "lng": 24.42,
    "country": "Congo (Kinshasa)",
    "iso2": "CD",
    "iso3": "COD",
    "admin_name": "Sankuru",
    "capital": "",
    "population": 1488922,
    "id": 1180033898
  },
  {
    "city": "Recife",
    "city_ascii": "Recife",
    "lat": -8.05,
    "lng": -34.9,
    "country": "Brazil",
    "iso2": "BR",
    "iso3": "BRA",
    "admin_name": "Pernambuco",
    "capital": "admin",
    "population": 1488920,
    "id": 1076137337
  },
  {
    "city": "Valencia",
    "city_ascii": "Valencia",
    "lat": 10.1833,
    "lng": -68,
    "country": "Venezuela",
    "iso2": "VE",
    "iso3": "VEN",
    "admin_name": "Carabobo",
    "capital": "admin",
    "population": 1484430,
    "id": 1862309871
  },
  {
    "city": "Abu Dhabi",
    "city_ascii": "Abu Dhabi",
    "lat": 24.4667,
    "lng": 54.3667,
    "country": "United Arab Emirates",
    "iso2": "AE",
    "iso3": "ARE",
    "admin_name": "Abū Z̧aby",
    "capital": "primary",
    "population": 1483000,
    "id": 1784176710
  },
  {
    "city": "Daejeon",
    "city_ascii": "Daejeon",
    "lat": 36.35,
    "lng": 127.385,
    "country": "Korea, South",
    "iso2": "KR",
    "iso3": "KOR",
    "admin_name": "Daejeon",
    "capital": "admin",
    "population": 1475221,
    "id": 1410993875
  },
  {
    "city": "Yekaterinburg",
    "city_ascii": "Yekaterinburg",
    "lat": 56.8356,
    "lng": 60.6128,
    "country": "Russia",
    "iso2": "RU",
    "iso3": "RUS",
    "admin_name": "Sverdlovskaya Oblast’",
    "capital": "admin",
    "population": 1468833,
    "id": 1643582706
  }
]