[
  {
    "city": "Matsuyama",
    "city_ascii": "Matsuyama",
    "lat": 33.8333,
    "lng": 132.7667,
    "country": "Japan",
    "iso2": "JP",
    "iso3": "JPN",
    "admin_name": "Ehime",
    "capital": "admin",
    "population": 506743,
    "id": 1392220893
  },
  {
    "city": "Toulouse",
    "city_ascii": "Toulouse",
    "lat": 43.6045,
    "lng": 1.444,
    "country": "France",
    "iso2": "FR",
    "iso3": "FRA",
    "admin_name": "Occitanie",
    "capital": "admin",
    "population": 504078,
    "id": 1250258110
  },
  {
    "city": "Pohang",
    "city_ascii": "Pohang",
    "lat": 36.0322,
    "lng": 129.365,
    "country": "Korea, South",
    "iso2": "KR",
    "iso3": "KOR",
    "admin_name": "Gyeongbuk",
    "capital": "minor",
    "population": 503780,
    "id": 1410983252
  },
  {
    "city": "Lipetsk",
    "city_ascii": "Lipetsk",
    "lat": 52.6167,
    "lng": 39.6,
    "country": "Russia",
    "iso2": "RU",
    "iso3": "RUS",
    "admin_name": "Lipetskaya Oblast’",
    "capital": "admin",
    "population": 503216,
    "id": 1643772906
  },
  {
    "city": "Homyel’",
    "city_ascii": "Homyel'",
    "lat": 52.4453,
    "lng": 30.9842,
    "country": "Belarus",
    "iso2": "BY",
    "iso3": "BLR",
    "admin_name": "Homyel’skaya Voblasts’",
    "capital": "admin",
    "population": 501802,
    "id": 1112580227
  },
  {
    "city": "Kirov",
    "city_ascii": "Kirov",
    "lat": 58.6,
    "lng": 49.6833,
    "country": "Russia",
    "iso2": "RU",
    "iso3": "RUS",
    "admin_name": "Kirovskaya Oblast’",
    "capital": "admin",
    "population": 501468,
    "id": 1643106064
  },
  {
    "city": "El Fasher",
    "city_ascii": "El Fasher",
    "lat": 13.6306,
    "lng": 25.35,
    "country": "Sudan",
    "iso2": "SD",
    "iso3": "SDN",
    "admin_name": "North Darfur",
    "capital": "admin",
    "population": 500000,
    "id": 1729372385
  },
  {
    "city": "Farāh",
    "city_ascii": "Farah",
    "lat": 32.3436,
    "lng": 62.1194,
    "country": "Afghanistan",
    "iso2": "AF",
    "iso3": "AFG",
    "admin_name": "Farāh",
    "capital": "admin",
    "population": 500000,
    "id": 1004523791
  },
  {
    "city": "Hsinchu",
    "city_ascii": "Hsinchu",
    "lat": 24.8167,
    "lng": 120.9833,
    "country": "Taiwan",
    "iso2": "TW",
    "iso3": "TWN",
    "admin_name": "Hsinchu",
    "capital": "admin",
    "population": 499348,
    "id": 1158276420
  },
  {
    "city": "Kaliningrad",
    "city_ascii": "Kaliningrad",
    "lat": 54.7003,
    "lng": 20.4531,
    "country": "Russia",
    "iso2": "RU",
    "iso3": "RUS",
    "admin_name": "Kaliningradskaya Oblast’",
    "capital": "admin",
    "population": 498260,
    "id": 1643178106
  },
  {
    "city": "Qaraghandy",
    "city_ascii": "Qaraghandy",
    "lat": 49.8028,
    "lng": 73.1056,
    "country": "Kazakhstan",
    "iso2": "KZ",
    "iso3": "KAZ",
    "admin_name": "Qaraghandy",
    "capital": "admin",
    "population": 497777,
    "id": 1398274508
  },
  {
    "city": "Lapu-Lapu City",
    "city_ascii": "Lapu-Lapu City",
    "lat": 10.3127,
    "lng": 123.9488,
    "country": "Philippines",
    "iso2": "PH",
    "iso3": "PHL",
    "admin_name": "Lapu-Lapu",
    "capital": "admin",
    "population": 497604,
    "id": 1608430676
  },
  {
    "city": "Johor Bahru",
    "city_ascii": "Johor Bahru",
    "lat": 1.4556,
    "lng": 103.7611,
    "country": "Malaysia",
    "iso2": "MY",
    "iso3": "MYS",
    "admin_name": "Johor",
    "capital": "admin",
    "population": 497097,
    "id": 1458747615
  },
  {
    "city": "Lembok",
    "city_ascii": "Lembok",
    "lat": -8.565,
    "lng": 116.351,
    "country": "Indonesia",
    "iso2": "ID",
    "iso3": "IDN",
    "admin_name": "Nusa Tenggara Barat",
    "capital": "",
    "population": 495651,
    "id": 1360013261
  },
  {
    "city": "Oujda-Angad",
    "city_ascii": "Oujda-Angad",
    "lat": 34.6867,
    "lng": -1.9114,
    "country": "Morocco",
    "iso2": "MA",
    "iso3": "MAR",
    "admin_name": "Oriental",
    "capital": "admin",
    "population": 494252,
    "id": 1504891036
  },
  {
    "city": "Nyala",
    "city_ascii": "Nyala",
    "lat": 12.05,
    "lng": 24.8833,
    "country": "Sudan",
    "iso2": "SD",
    "iso3": "SDN",
    "admin_name": "South Darfur",
    "capital": "admin",
    "population": 492984,
    "id": 1729833248
  },
  {
    "city": "Bissau",
    "city_ascii": "Bissau",
    "lat": 11.85,
    "lng": -15.5667,
    "country": "Guinea-Bissau",
    "iso2": "GW",
    "iso3": "GNB",
    "admin_name": "Bissau",
    "capital": "primary",
    "population": 492004,
    "id": 1624168850
  },
  {
    "city": "Kota Bharu",
    "city_ascii": "Kota Bharu",
    "lat": 6.1333,
    "lng": 102.25,
    "country": "Malaysia",
    "iso2": "MY",
    "iso3": "MYS",
    "admin_name": "Kelantan",
    "capital": "admin",
    "population": 491237,
    "id": 1458150101
  },
  {
    "city": "‘Ajmān",
    "city_ascii": "`Ajman",
    "lat": 25.4136,
    "lng": 55.4456,
    "country": "United Arab Emirates",
    "iso2": "AE",
    "iso3": "ARE",
    "admin_name": "‘Ajmān",
    "capital": "admin",
    "population": 490035,
    "id": 1784337875
  },
  {
    "city": "Vinh",
    "city_ascii": "Vinh",
    "lat": 18.6667,
    "lng": 105.6667,
    "country": "Vietnam",
    "iso2": "VN",
    "iso3": "VNM",
    "admin_name": "Nghệ An",
    "capital": "admin",
    "population": 490000,
    "id": 1704960059
  },
  {
    "city": "Cheboksary",
    "city_ascii": "Cheboksary",
    "lat": 56.15,
    "lng": 47.2333,
    "country": "Russia",
    "iso2": "RU",
    "iso3": "RUS",
    "admin_name": "Chuvashiya",
    "capital": "admin",
    "population": 489498,
    "id": 1643163382
  },
  {
    "city": "Caerdydd",
    "city_ascii": "Caerdydd",
    "lat": 51.4833,
    "lng": -3.1833,
    "country": "United Kingdom",
    "iso2": "GB",
    "iso3": "GBR",
    "admin_name": "Cardiff",
    "capital": "",
    "population": 488153,
    "id": 1826362422
  },
  {
    "city": "Edinburgh",
    "city_ascii": "Edinburgh",
    "lat": 55.9533,
    "lng": -3.1892,
    "country": "United Kingdom",
    "iso2": "GB",
    "iso3": "GBR",
    "admin_name": "Edinburgh, City of",
    "capital": "",
    "population": 488050,
    "id": 1826492520
  },
  {
    "city": "Gdańsk",
    "city_ascii": "Gdansk",
    "lat": 54.3475,
    "lng": 18.6453,
    "country": "Poland",
    "iso2": "PL",
    "iso3": "POL",
    "admin_name": "Pomorskie",
    "capital": "admin",
    "population": 486022,
    "id": 1616406372
  },
  {
    "city": "Sevastopol",
    "city_ascii": "Sevastopol",
    "lat": 44.605,
    "lng": 33.5225,
    "country": "Ukraine",
    "iso2": "UA",
    "iso3": "UKR",
    "admin_name": "Sevastopol, Misto",
    "capital": "admin",
    "population": 485386,
    "id": 1804806030
  },
  {
    "city": "Garoowe",
    "city_ascii": "Garoowe",
    "lat": 8.4,
    "lng": 48.4667,
    "country": "Somalia",
    "iso2": "SO",
    "iso3": "SOM",
    "admin_name": "Nugaal",
    "capital": "admin",
    "population": 485000,
    "id": 1706512367
  },
  {
    "city": "Akhmīm",
    "city_ascii": "Akhmim",
    "lat": 26.5667,
    "lng": 31.75,
    "country": "Egypt",
    "iso2": "EG",
    "iso3": "EGY",
    "admin_name": "Sūhāj",
    "capital": "",
    "population": 482666,
    "id": 1818295057
  },
  {
    "city": "Şanlıurfa",
    "city_ascii": "Sanliurfa",
    "lat": 37.1583,
    "lng": 38.7917,
    "country": "Turkey",
    "iso2": "TR",
    "iso3": "TUR",
    "admin_name": "Şanlıurfa",
    "capital": "admin",
    "population": 482323,
    "id": 1792937570
  },
  {
    "city": "Az Zarqā’",
    "city_ascii": "Az Zarqa'",
    "lat": 32.0833,
    "lng": 36.1,
    "country": "Jordan",
    "iso2": "JO",
    "iso3": "JOR",
    "admin_name": "Az Zarqā’",
    "capital": "admin",
    "population": 481300,
    "id": 1400161837
  },
  {
    "city": "Valletta",
    "city_ascii": "Valletta",
    "lat": 35.8983,
    "lng": 14.5125,
    "country": "Malta",
    "iso2": "MT",
    "iso3": "MLT",
    "admin_name": "Valletta",
    "capital": "primary",
    "population": 480134,
    "id": 1470574399
  },
  {
    "city": "Kolwezi",
    "city_ascii": "Kolwezi",
    "lat": -10.7167,
    "lng": 25.4667,
    "country": "Congo (Kinshasa)",
    "iso2": "CD",
    "iso3": "COD",
    "admin_name": "Lualaba",
    "capital": "admin",
    "population": 480000,
    "id": 1180380965
  },
  {
    "city": "Sylhet",
    "city_ascii": "Sylhet",
    "lat": 24.9,
    "lng": 91.8667,
    "country": "Bangladesh",
    "iso2": "BD",
    "iso3": "BGD",
    "admin_name": "Sylhet",
    "capital": "admin",
    "population": 479837,
    "id": 1050646703
  },
  {
    "city": "Asunción",
    "city_ascii": "Asuncion",
    "lat": -25.3,
    "lng": -57.6333,
    "country": "Paraguay",
    "iso2": "PY",
    "iso3": "PRY",
    "admin_name": "Asunción",
    "capital": "primary",
    "population": 477346,
    "id": 1600057911
  },
  {
    "city": "Ōita",
    "city_ascii": "Oita",
    "lat": 33.2333,
    "lng": 131.6067,
    "country": "Japan",
    "iso2": "JP",
    "iso3": "JPN",
    "admin_name": "Ōita",
    "capital": "admin",
    "population": 477186,
    "id": 1392081193
  },
  {
    "city": "Eldoret",
    "city_ascii": "Eldoret",
    "lat": 0.5167,
    "lng": 35.2833,
    "country": "Kenya",
    "iso2": "KE",
    "iso3": "KEN",
    "admin_name": "Uasin Gishu",
    "capital": "admin",
    "population": 475716,
    "id": 1404676289
  },
  {
    "city": "Bratislava",
    "city_ascii": "Bratislava",
    "lat": 48.1439,
    "lng": 17.1097,
    "country": "Slovakia",
    "iso2": "SK",
    "iso3": "SVK",
    "admin_name": "Bratislava",
    "capital": "primary",
    "population": 475503,
    "id": 1703195001
  },
  {
    "city": "Worthing",
    "city_ascii": "Worthing",
    "lat": 50.8147,
    "lng": -0.3714,
    "country": "United Kingdom",
    "iso2": "GB",
    "iso3": "GBR",
    "admin_name": "West Sussex",
    "capital": "",
    "population": 474485,
    "id": 1826936965
  },
  {
    "city": "Piura",
    "city_ascii": "Piura",
    "lat": -5.2,
    "lng": -80.6333,
    "country": "Peru",
    "iso2": "PE",
    "iso3": "PER",
    "admin_name": "Piura",
    "capital": "admin",
    "population": 473025,
    "id": 1604331641
  },
  {
    "city": "San Juan",
    "city_ascii": "San Juan",
    "lat": -31.5342,
    "lng": -68.5261,
    "country": "Argentina",
    "iso2": "AR",
    "iso3": "ARG",
    "admin_name": "San Juan",
    "capital": "admin",
    "population": 471389,
    "id": 1032869625
  },
  {
    "city": "Mykolaiv",
    "city_ascii": "Mykolaiv",
    "lat": 46.975,
    "lng": 31.995,
    "country": "Ukraine",
    "iso2": "UA",
    "iso3": "UKR",
    "admin_name": "Mykolaivska Oblast",
    "capital": "admin",
    "population": 470011,
    "id": 1804398395
  },
  {
    "city": "Mazār-e Sharīf",
    "city_ascii": "Mazar-e Sharif",
    "lat": 36.7,
    "lng": 67.1167,
    "country": "Afghanistan",
    "iso2": "AF",
    "iso3": "AFG",
    "admin_name": "Balkh",
    "capital": "admin",
    "population": 469247,
    "id": 1004436363
  },
  {
    "city": "Balashikha",
    "city_ascii": "Balashikha",
    "lat": 55.8167,
    "lng": 37.9667,
    "country": "Russia",
    "iso2": "RU",
    "iso3": "RUS",
    "admin_name": "Moskovskaya Oblast’",
    "capital": "minor",
    "population": 468221,
    "id": 1643989845
  },
  {
    "city": "Tula",
    "city_ascii": "Tula",
    "lat": 54.2,
    "lng": 37.6167,
    "country": "Russia",
    "iso2": "RU",
    "iso3": "RUS",
    "admin_name": "Tul’skaya Oblast’",
    "capital": "admin",
    "population": 467955,
    "id": 1643255206
  },
  {
    "city": "Ba‘qūbah",
    "city_ascii": "Ba`qubah",
    "lat": 33.75,
    "lng": 44.6333,
    "country": "Iraq",
    "iso2": "IQ",
    "iso3": "IRQ",
    "admin_name": "Diyālá",
    "capital": "admin",
    "population": 467900,
    "id": 1368444902
  },
  {
    "city": "Buraydah",
    "city_ascii": "Buraydah",
    "lat": 26.3333,
    "lng": 43.9667,
    "country": "Saudi Arabia",
    "iso2": "SA",
    "iso3": "SAU",
    "admin_name": "Al Qaşīm",
    "capital": "admin",
    "population": 467410,
    "id": 1682470726
  },
  {
    "city": "Kupang",
    "city_ascii": "Kupang",
    "lat": -10.1702,
    "lng": 123.6077,
    "country": "Indonesia",
    "iso2": "ID",
    "iso3": "IDN",
    "admin_name": "Nusa Tenggara Timur",
    "capital": "admin",
    "population": 466632,
    "id": 1360696757
  },
  {
    "city": "Nakhon Ratchasima",
    "city_ascii": "Nakhon Ratchasima",
    "lat": 14.975,
    "lng": 102.1,
    "country": "Thailand",
    "iso2": "TH",
    "iso3": "THA",
    "admin_name": "Nakhon Ratchasima",
    "capital": "admin",
    "population": 466098,
    "id": 1764752197
  },
  {
    "city": "Tân Uyên",
    "city_ascii": "Tan Uyen",
    "lat": 11.0508,
    "lng": 106.7636,
    "country": "Vietnam",
    "iso2": "VN",
    "iso3": "VNM",
    "admin_name": "Bình Dương",
    "capital": "minor",
    "population": 466053,
    "id": 1704985934
  },
  {
    "city": "Constantine",
    "city_ascii": "Constantine",
    "lat": 36.35,
    "lng": 6.6,
    "country": "Algeria",
    "iso2": "DZ",
    "iso3": "DZA",
    "admin_name": "Constantine",
    "capital": "admin",
    "population": 465138,
    "id": 1012275076
  },
  {
    "city": "Angeles City",
    "city_ascii": "Angeles City",
    "lat": 15.1472,
    "lng": 120.5847,
    "country": "Philippines",
    "iso2": "PH",
    "iso3": "PHL",
    "admin_name": "Angeles",
    "capital": "admin",
    "population": 462928,
    "id": 1608036027
  }
]