[
  {
    "city": "Boa Vista",
    "city_ascii": "Boa Vista",
    "lat": 2.8194,
    "lng": -60.6714,
    "country": "Brazil",
    "iso2": "BR",
    "iso3": "BRA",
    "admin_name": "Roraima",
    "capital": "admin",
    "population": 413486,
    "id": 1076621300
  },
  {
    "city": "Banjul",
    "city_ascii": "Banjul",
    "lat": 13.4531,
    "lng": -16.5775,
    "country": "Gambia, The",
    "iso2": "GM",
    "iso3": "GMB",
    "admin_name": "Banjul",
    "capital": "primary",
    "population": 413397,
    "id": 1270723713
  },
  {
    "city": "Jayapura",
    "city_ascii": "Jayapura",
    "lat": -2.533,
    "lng": 140.717,
    "country": "Indonesia",
    "iso2": "ID",
    "iso3": "IDN",
    "admin_name": "Papua",
    "capital": "admin",
    "population": 413283,
    "id": 1360517692
  },
  {
    "city": "Toyama",
    "city_ascii": "Toyama",
    "lat": 36.6959,
    "lng": 137.2137,
    "country": "Japan",
    "iso2": "JP",
    "iso3": "JPN",
    "admin_name": "Toyama",
    "capital": "admin",
    "population": 413028,
    "id": 1392000560
  },
  {
    "city": "Sanandaj",
    "city_ascii": "Sanandaj",
    "lat": 35.3114,
    "lng": 46.9961,
    "country": "Iran",
    "iso2": "IR",
    "iso3": "IRN",
    "admin_name": "Kordestān",
    "capital": "admin",
    "population": 412767,
    "id": 1364178783
  },
  {
    "city": "Khon Kaen",
    "city_ascii": "Khon Kaen",
    "lat": 16.4333,
    "lng": 102.8333,
    "country": "Thailand",
    "iso2": "TH",
    "iso3": "THA",
    "admin_name": "Khon Kaen",
    "capital": "admin",
    "population": 412758,
    "id": 1764003406
  },
  {
    "city": "Pasto",
    "city_ascii": "Pasto",
    "lat": 1.2078,
    "lng": -77.2772,
    "country": "Colombia",
    "iso2": "CO",
    "iso3": "COL",
    "admin_name": "Nariño",
    "capital": "admin",
    "population": 410835,
    "id": 1170320545
  },
  {
    "city": "Kisumu",
    "city_ascii": "Kisumu",
    "lat": -0.0833,
    "lng": 34.7667,
    "country": "Kenya",
    "iso2": "KE",
    "iso3": "KEN",
    "admin_name": "Kisumu",
    "capital": "admin",
    "population": 409928,
    "id": 1404511920
  },
  {
    "city": "Shashemenē",
    "city_ascii": "Shashemene",
    "lat": 7.2,
    "lng": 38.6,
    "country": "Ethiopia",
    "iso2": "ET",
    "iso3": "ETH",
    "admin_name": "Oromīya",
    "capital": "",
    "population": 408368,
    "id": 1231110370
  },
  {
    "city": "Đà Lạt",
    "city_ascii": "Da Lat",
    "lat": 11.9417,
    "lng": 108.4383,
    "country": "Vietnam",
    "iso2": "VN",
    "iso3": "VNM",
    "admin_name": "Lâm Đồng",
    "capital": "admin",
    "population": 406105,
    "id": 1704933464
  },
  {
    "city": "Cumaná",
    "city_ascii": "Cumana",
    "lat": 10.4564,
    "lng": -64.1675,
    "country": "Venezuela",
    "iso2": "VE",
    "iso3": "VEN",
    "admin_name": "Sucre",
    "capital": "admin",
    "population": 405626,
    "id": 1862583279
  },
  {
    "city": "Nagasaki",
    "city_ascii": "Nagasaki",
    "lat": 32.7447,
    "lng": 129.8736,
    "country": "Japan",
    "iso2": "JP",
    "iso3": "JPN",
    "admin_name": "Nagasaki",
    "capital": "admin",
    "population": 404656,
    "id": 1392162566
  },
  {
    "city": "Hat Yai",
    "city_ascii": "Hat Yai",
    "lat": 7.0167,
    "lng": 100.4667,
    "country": "Thailand",
    "iso2": "TH",
    "iso3": "THA",
    "admin_name": "Songkhla",
    "capital": "minor",
    "population": 404044,
    "id": 1764161022
  },
  {
    "city": "Ivanovo",
    "city_ascii": "Ivanovo",
    "lat": 56.9967,
    "lng": 40.9819,
    "country": "Russia",
    "iso2": "RU",
    "iso3": "RUS",
    "admin_name": "Ivanovskaya Oblast’",
    "capital": "admin",
    "population": 401505,
    "id": 1643297945
  },
  {
    "city": "Öskemen",
    "city_ascii": "Oskemen",
    "lat": 49.9833,
    "lng": 82.6167,
    "country": "Kazakhstan",
    "iso2": "KZ",
    "iso3": "KAZ",
    "admin_name": "East Kazakhstan",
    "capital": "admin",
    "population": 400142,
    "id": 1398371414
  },
  {
    "city": "Gifu",
    "city_ascii": "Gifu",
    "lat": 35.4232,
    "lng": 136.7608,
    "country": "Japan",
    "iso2": "JP",
    "iso3": "JPN",
    "admin_name": "Gifu",
    "capital": "admin",
    "population": 400118,
    "id": 1392097787
  },
  {
    "city": "Maungdaw",
    "city_ascii": "Maungdaw",
    "lat": 20.8167,
    "lng": 92.3667,
    "country": "Burma",
    "iso2": "MM",
    "iso3": "MMR",
    "admin_name": "Rakhine State",
    "capital": "",
    "population": 400000,
    "id": 1104000431
  },
  {
    "city": "Bryansk",
    "city_ascii": "Bryansk",
    "lat": 53.2333,
    "lng": 34.3667,
    "country": "Russia",
    "iso2": "RU",
    "iso3": "RUS",
    "admin_name": "Bryanskaya Oblast’",
    "capital": "admin",
    "population": 399579,
    "id": 1643208827
  },
  {
    "city": "Miyazaki",
    "city_ascii": "Miyazaki",
    "lat": 31.9078,
    "lng": 131.4203,
    "country": "Japan",
    "iso2": "JP",
    "iso3": "JPN",
    "admin_name": "Miyazaki",
    "capital": "admin",
    "population": 397476,
    "id": 1392216224
  },
  {
    "city": "Szczecin",
    "city_ascii": "Szczecin",
    "lat": 53.4325,
    "lng": 14.5481,
    "country": "Poland",
    "iso2": "PL",
    "iso3": "POL",
    "admin_name": "Zachodniopomorskie",
    "capital": "admin",
    "population": 396168,
    "id": 1616256546
  },
  {
    "city": "Brno",
    "city_ascii": "Brno",
    "lat": 49.1925,
    "lng": 16.6083,
    "country": "Czechia",
    "iso2": "CZ",
    "iso3": "CZE",
    "admin_name": "Jihomoravský Kraj",
    "capital": "admin",
    "population": 396101,
    "id": 1203676514
  },
  {
    "city": "Surgut",
    "city_ascii": "Surgut",
    "lat": 61.25,
    "lng": 73.4333,
    "country": "Russia",
    "iso2": "RU",
    "iso3": "RUS",
    "admin_name": "Khanty-Mansiyskiy Avtonomnyy Okrug-Yugra",
    "capital": "",
    "population": 395900,
    "id": 1643007475
  },
  {
    "city": "Betsiboka",
    "city_ascii": "Betsiboka",
    "lat": -16.95,
    "lng": 46.83,
    "country": "Madagascar",
    "iso2": "MG",
    "iso3": "MDG",
    "admin_name": "Mahajanga",
    "capital": "",
    "population": 394561,
    "id": 1450524066
  },
  {
    "city": "Thiès",
    "city_ascii": "Thies",
    "lat": 14.7833,
    "lng": -16.9167,
    "country": "Senegal",
    "iso2": "SN",
    "iso3": "SEN",
    "admin_name": "Thiès",
    "capital": "admin",
    "population": 394544,
    "id": 1686527948
  },
  {
    "city": "Al Jahrā’",
    "city_ascii": "Al Jahra'",
    "lat": 29.35,
    "lng": 47.6833,
    "country": "Kuwait",
    "iso2": "KW",
    "iso3": "KWT",
    "admin_name": "Al Jahrā’",
    "capital": "",
    "population": 393432,
    "id": 1414182001
  },
  {
    "city": "Kaunas",
    "city_ascii": "Kaunas",
    "lat": 54.8972,
    "lng": 23.8861,
    "country": "Lithuania",
    "iso2": "LT",
    "iso3": "LTU",
    "admin_name": "Kauno Miestas",
    "capital": "admin",
    "population": 393397,
    "id": 1440302852
  },
  {
    "city": "Thanh Hóa",
    "city_ascii": "Thanh Hoa",
    "lat": 19.8075,
    "lng": 105.7764,
    "country": "Vietnam",
    "iso2": "VN",
    "iso3": "VNM",
    "admin_name": "Thanh Hóa",
    "capital": "admin",
    "population": 393294,
    "id": 1704016079
  },
  {
    "city": "Saurimo",
    "city_ascii": "Saurimo",
    "lat": -9.65,
    "lng": 20.4,
    "country": "Angola",
    "iso2": "AO",
    "iso3": "AGO",
    "admin_name": "Lunda-Sul",
    "capital": "admin",
    "population": 393000,
    "id": 1024326839
  },
  {
    "city": "Yola",
    "city_ascii": "Yola",
    "lat": 9.23,
    "lng": 12.46,
    "country": "Nigeria",
    "iso2": "NG",
    "iso3": "NGA",
    "admin_name": "Adamawa",
    "capital": "admin",
    "population": 392854,
    "id": 1566782065
  },
  {
    "city": "Nha Trang",
    "city_ascii": "Nha Trang",
    "lat": 12.245,
    "lng": 109.1917,
    "country": "Vietnam",
    "iso2": "VN",
    "iso3": "VNM",
    "admin_name": "Khánh Hòa",
    "capital": "admin",
    "population": 392279,
    "id": 1704497901
  },
  {
    "city": "Ad Dīwānīyah",
    "city_ascii": "Ad Diwaniyah",
    "lat": 31.9892,
    "lng": 44.9247,
    "country": "Iraq",
    "iso2": "IQ",
    "iso3": "IRQ",
    "admin_name": "Al Qādisīyah",
    "capital": "admin",
    "population": 391600,
    "id": 1368864006
  },
  {
    "city": "San-Pédro",
    "city_ascii": "San-Pedro",
    "lat": 4.75,
    "lng": -6.6333,
    "country": "Côte d’Ivoire",
    "iso2": "CI",
    "iso3": "CIV",
    "admin_name": "Bas-Sassandra",
    "capital": "admin",
    "population": 390654,
    "id": 1384436547
  },
  {
    "city": "Bologna",
    "city_ascii": "Bologna",
    "lat": 44.4939,
    "lng": 11.3428,
    "country": "Italy",
    "iso2": "IT",
    "iso3": "ITA",
    "admin_name": "Emilia-Romagna",
    "capital": "admin",
    "population": 387971,
    "id": 1380202039
  },
  {
    "city": "Aqtöbe",
    "city_ascii": "Aqtobe",
    "lat": 50.2836,
    "lng": 57.2297,
    "country": "Kazakhstan",
    "iso2": "KZ",
    "iso3": "KAZ",
    "admin_name": "Aqtöbe",
    "capital": "admin",
    "population": 387807,
    "id": 1398602716
  },
  {
    "city": "Uvinza",
    "city_ascii": "Uvinza",
    "lat": -5.1069,
    "lng": 30.3839,
    "country": "Tanzania",
    "iso2": "TZ",
    "iso3": "TZA",
    "admin_name": "Kigoma",
    "capital": "",
    "population": 387442,
    "id": 1834561245
  },
  {
    "city": "Zanjān",
    "city_ascii": "Zanjan",
    "lat": 36.6789,
    "lng": 48.5056,
    "country": "Iran",
    "iso2": "IR",
    "iso3": "IRN",
    "admin_name": "Zanjān",
    "capital": "admin",
    "population": 386851,
    "id": 1364312712
  },
  {
    "city": "Manisa",
    "city_ascii": "Manisa",
    "lat": 38.6144,
    "lng": 27.4292,
    "country": "Turkey",
    "iso2": "TR",
    "iso3": "TUR",
    "admin_name": "Manisa",
    "capital": "admin",
    "population": 385452,
    "id": 1792804328
  },
  {
    "city": "Tarlac City",
    "city_ascii": "Tarlac City",
    "lat": 15.4869,
    "lng": 120.59,
    "country": "Philippines",
    "iso2": "PH",
    "iso3": "PHL",
    "admin_name": "Tarlac",
    "capital": "admin",
    "population": 385398,
    "id": 1608237027
  },
  {
    "city": "Ceel Baraf",
    "city_ascii": "Ceel Baraf",
    "lat": 3.2073,
    "lng": 45.7587,
    "country": "Somalia",
    "iso2": "SO",
    "iso3": "SOM",
    "admin_name": "Shabeellaha Dhexe",
    "capital": "",
    "population": 384630,
    "id": 1706959191
  },
  {
    "city": "Christchurch",
    "city_ascii": "Christchurch",
    "lat": -43.531,
    "lng": 172.6365,
    "country": "New Zealand",
    "iso2": "NZ",
    "iso3": "NZL",
    "admin_name": "Canterbury",
    "capital": "admin",
    "population": 383200,
    "id": 1554377228
  },
  {
    "city": "Gusau",
    "city_ascii": "Gusau",
    "lat": 12.15,
    "lng": 6.6667,
    "country": "Nigeria",
    "iso2": "NG",
    "iso3": "NGA",
    "admin_name": "Zamfara",
    "capital": "admin",
    "population": 383162,
    "id": 1566383682
  },
  {
    "city": "Palu",
    "city_ascii": "Palu",
    "lat": -0.895,
    "lng": 119.8594,
    "country": "Indonesia",
    "iso2": "ID",
    "iso3": "IDN",
    "admin_name": "Sulawesi Tengah",
    "capital": "admin",
    "population": 381572,
    "id": 1360518272
  },
  {
    "city": "Canberra",
    "city_ascii": "Canberra",
    "lat": -35.2931,
    "lng": 149.1269,
    "country": "Australia",
    "iso2": "AU",
    "iso3": "AUS",
    "admin_name": "Australian Capital Territory",
    "capital": "primary",
    "population": 381488,
    "id": 1036142029
  },
  {
    "city": "Malabon",
    "city_ascii": "Malabon",
    "lat": 14.66,
    "lng": 120.96,
    "country": "Philippines",
    "iso2": "PH",
    "iso3": "PHL",
    "admin_name": "Malabon",
    "capital": "admin",
    "population": 380522,
    "id": 1608045841
  },
  {
    "city": "Novi Sad",
    "city_ascii": "Novi Sad",
    "lat": 45.2542,
    "lng": 19.8425,
    "country": "Serbia",
    "iso2": "RS",
    "iso3": "SRB",
    "admin_name": "Novi Sad",
    "capital": "admin",
    "population": 380000,
    "id": 1688169087
  },
  {
    "city": "Huancayo",
    "city_ascii": "Huancayo",
    "lat": -12.0667,
    "lng": -75.2167,
    "country": "Peru",
    "iso2": "PE",
    "iso3": "PER",
    "admin_name": "Junín",
    "capital": "admin",
    "population": 378203,
    "id": 1604249985
  },
  {
    "city": "Hatay",
    "city_ascii": "Hatay",
    "lat": 36.2025,
    "lng": 36.1606,
    "country": "Turkey",
    "iso2": "TR",
    "iso3": "TUR",
    "admin_name": "Hatay",
    "capital": "admin",
    "population": 377793,
    "id": 1792115763
  },
  {
    "city": "Iquitos",
    "city_ascii": "Iquitos",
    "lat": -3.75,
    "lng": -73.25,
    "country": "Peru",
    "iso2": "PE",
    "iso3": "PER",
    "admin_name": "Loreto",
    "capital": "admin",
    "population": 377609,
    "id": 1604493809
  },
  {
    "city": "Mamou",
    "city_ascii": "Mamou",
    "lat": 10.3833,
    "lng": -12.0833,
    "country": "Guinea",
    "iso2": "GN",
    "iso3": "GIN",
    "admin_name": "Mamou",
    "capital": "admin",
    "population": 376269,
    "id": 1324990909
  },
  {
    "city": "Gaziantep",
    "city_ascii": "Gaziantep",
    "lat": 37.0628,
    "lng": 37.3792,
    "country": "Turkey",
    "iso2": "TR",
    "iso3": "TUR",
    "admin_name": "Gaziantep",
    "capital": "admin",
    "population": 374290,
    "id": 1792911843
  }
]