[
  {
    "city": "Kimberley",
    "city_ascii": "Kimberley",
    "lat": -28.7383,
    "lng": 24.7639,
    "country": "South Africa",
    "iso2": "ZA",
    "iso3": "ZAF",
    "admin_name": "Northern Cape",
    "capital": "admin",
    "population": 225160,
    "id": 1710282622
  },
  {
    "city": "Toamasina",
    "city_ascii": "Toamasina",
    "lat": -18.155,
    "lng": 49.41,
    "country": "Madagascar",
    "iso2": "MG",
    "iso3": "MDG",
    "admin_name": "Toamasina",
    "capital": "admin",
    "population": 225116,
    "id": 1450540529
  },
  {
    "city": "Rennes",
    "city_ascii": "Rennes",
    "lat": 48.1147,
    "lng": -1.6794,
    "country": "France",
    "iso2": "FR",
    "iso3": "FRA",
    "admin_name": "Bretagne",
    "capital": "admin",
    "population": 225081,
    "id": 1250363682
  },
  {
    "city": "Mutare",
    "city_ascii": "Mutare",
    "lat": -18.9667,
    "lng": 32.6333,
    "country": "Zimbabwe",
    "iso2": "ZW",
    "iso3": "ZWE",
    "admin_name": "Manicaland",
    "capital": "admin",
    "population": 224802,
    "id": 1716060405
  },
  {
    "city": "Blagoveshchensk",
    "city_ascii": "Blagoveshchensk",
    "lat": 50.25,
    "lng": 127.5333,
    "country": "Russia",
    "iso2": "RU",
    "iso3": "RUS",
    "admin_name": "Amurskaya Oblast’",
    "capital": "admin",
    "population": 224419,
    "id": 1643308239
  },
  {
    "city": "Paramaribo",
    "city_ascii": "Paramaribo",
    "lat": 5.8522,
    "lng": -55.2039,
    "country": "Suriname",
    "iso2": "SR",
    "iso3": "SUR",
    "admin_name": "Paramaribo",
    "capital": "primary",
    "population": 223757,
    "id": 1740518660
  },
  {
    "city": "Bandar-e Būshehr",
    "city_ascii": "Bandar-e Bushehr",
    "lat": 28.9264,
    "lng": 50.8514,
    "country": "Iran",
    "iso2": "IR",
    "iso3": "IRN",
    "admin_name": "Būshehr",
    "capital": "admin",
    "population": 223504,
    "id": 1364483819
  },
  {
    "city": "Velikiy Novgorod",
    "city_ascii": "Velikiy Novgorod",
    "lat": 58.55,
    "lng": 31.2667,
    "country": "Russia",
    "iso2": "RU",
    "iso3": "RUS",
    "admin_name": "Novgorodskaya Oblast’",
    "capital": "admin",
    "population": 222594,
    "id": 1643774241
  },
  {
    "city": "Barra do Dande",
    "city_ascii": "Barra do Dande",
    "lat": -8.4728,
    "lng": 13.3731,
    "country": "Angola",
    "iso2": "AO",
    "iso3": "AGO",
    "admin_name": "Bengo",
    "capital": "",
    "population": 222528,
    "id": 1024937810
  },
  {
    "city": "Cork",
    "city_ascii": "Cork",
    "lat": 51.8972,
    "lng": -8.47,
    "country": "Ireland",
    "iso2": "IE",
    "iso3": "IRL",
    "admin_name": "Cork",
    "capital": "admin",
    "population": 222333,
    "id": 1372221853
  },
  {
    "city": "Dili",
    "city_ascii": "Dili",
    "lat": -8.5536,
    "lng": 125.5783,
    "country": "Timor-Leste",
    "iso2": "TL",
    "iso3": "TLS",
    "admin_name": "Díli",
    "capital": "primary",
    "population": 222323,
    "id": 1626308942
  },
  {
    "city": "Swindon",
    "city_ascii": "Swindon",
    "lat": 51.56,
    "lng": -1.78,
    "country": "United Kingdom",
    "iso2": "GB",
    "iso3": "GBR",
    "admin_name": "Swindon",
    "capital": "",
    "population": 222193,
    "id": 1826498106
  },
  {
    "city": "Myeik",
    "city_ascii": "Myeik",
    "lat": 12.4333,
    "lng": 98.6,
    "country": "Burma",
    "iso2": "MM",
    "iso3": "MMR",
    "admin_name": "Tanintharyi",
    "capital": "",
    "population": 222056,
    "id": 1104715655
  },
  {
    "city": "Guéckédou",
    "city_ascii": "Gueckedou",
    "lat": 8.5667,
    "lng": -10.1333,
    "country": "Guinea",
    "iso2": "GN",
    "iso3": "GIN",
    "admin_name": "N’Zérékoré",
    "capital": "minor",
    "population": 221715,
    "id": 1324580681
  },
  {
    "city": "Sousse",
    "city_ascii": "Sousse",
    "lat": 35.8333,
    "lng": 10.6333,
    "country": "Tunisia",
    "iso2": "TN",
    "iso3": "TUN",
    "admin_name": "Sousse",
    "capital": "admin",
    "population": 221530,
    "id": 1788927583
  },
  {
    "city": "Tabora",
    "city_ascii": "Tabora",
    "lat": -5.0167,
    "lng": 32.8,
    "country": "Tanzania",
    "iso2": "TZ",
    "iso3": "TZA",
    "admin_name": "Tabora",
    "capital": "admin",
    "population": 221466,
    "id": 1834712235
  },
  {
    "city": "Sóc Trăng",
    "city_ascii": "Soc Trang",
    "lat": 9.6028,
    "lng": 105.9736,
    "country": "Vietnam",
    "iso2": "VN",
    "iso3": "VNM",
    "admin_name": "Sóc Trăng",
    "capital": "admin",
    "population": 221430,
    "id": 1704758756
  },
  {
    "city": "Tchaourou",
    "city_ascii": "Tchaourou",
    "lat": 8.8833,
    "lng": 2.6,
    "country": "Benin",
    "iso2": "BJ",
    "iso3": "BEN",
    "admin_name": "Borgou",
    "capital": "",
    "population": 221108,
    "id": 1204695000
  },
  {
    "city": "San Felipe",
    "city_ascii": "San Felipe",
    "lat": 10.3406,
    "lng": -68.7369,
    "country": "Venezuela",
    "iso2": "VE",
    "iso3": "VEN",
    "admin_name": "Yaracuy",
    "capital": "admin",
    "population": 220786,
    "id": 1862716082
  },
  {
    "city": "Mainz",
    "city_ascii": "Mainz",
    "lat": 49.9994,
    "lng": 8.2736,
    "country": "Germany",
    "iso2": "DE",
    "iso3": "DEU",
    "admin_name": "Rhineland-Palatinate",
    "capital": "admin",
    "population": 220552,
    "id": 1276801317
  },
  {
    "city": "La Vega",
    "city_ascii": "La Vega",
    "lat": 19.22,
    "lng": -70.53,
    "country": "Dominican Republic",
    "iso2": "DO",
    "iso3": "DOM",
    "admin_name": "Cibao Sur",
    "capital": "admin",
    "population": 220279,
    "id": 1214691060
  },
  {
    "city": "Prizren",
    "city_ascii": "Prizren",
    "lat": 42.2128,
    "lng": 20.7392,
    "country": "Kosovo",
    "iso2": "XK",
    "iso3": "XKS",
    "admin_name": "Prizren",
    "capital": "admin",
    "population": 220128,
    "id": 1901360309
  },
  {
    "city": "Zanzibar",
    "city_ascii": "Zanzibar",
    "lat": -6.165,
    "lng": 39.199,
    "country": "Tanzania",
    "iso2": "TZ",
    "iso3": "TZA",
    "admin_name": "Zanzibar Urban/West",
    "capital": "admin",
    "population": 219007,
    "id": 1834823848
  },
  {
    "city": "Pangkalpinang",
    "city_ascii": "Pangkalpinang",
    "lat": -2.1333,
    "lng": 106.1167,
    "country": "Indonesia",
    "iso2": "ID",
    "iso3": "IDN",
    "admin_name": "Kepulauan Bangka Belitung",
    "capital": "admin",
    "population": 218569,
    "id": 1360901919
  },
  {
    "city": "San Miguel",
    "city_ascii": "San Miguel",
    "lat": 13.4814,
    "lng": -88.1775,
    "country": "El Salvador",
    "iso2": "SV",
    "iso3": "SLV",
    "admin_name": "San Miguel",
    "capital": "admin",
    "population": 218410,
    "id": 1222009747
  },
  {
    "city": "Galaţi",
    "city_ascii": "Galati",
    "lat": 45.4233,
    "lng": 28.0425,
    "country": "Romania",
    "iso2": "RO",
    "iso3": "ROU",
    "admin_name": "Galaţi",
    "capital": "admin",
    "population": 217851,
    "id": 1642571620
  },
  {
    "city": "Laâyoune",
    "city_ascii": "Laayoune",
    "lat": 27.1536,
    "lng": -13.2033,
    "country": "Morocco",
    "iso2": "MA",
    "iso3": "MAR",
    "admin_name": "Laâyoune-Sakia El Hamra",
    "capital": "",
    "population": 217732,
    "id": 1504000319
  },
  {
    "city": "Qostanay",
    "city_ascii": "Qostanay",
    "lat": 53.2,
    "lng": 63.62,
    "country": "Kazakhstan",
    "iso2": "KZ",
    "iso3": "KAZ",
    "admin_name": "Qostanay",
    "capital": "admin",
    "population": 217135,
    "id": 1398455461
  },
  {
    "city": "Zielona Góra",
    "city_ascii": "Zielona Gora",
    "lat": 51.9333,
    "lng": 15.5,
    "country": "Poland",
    "iso2": "PL",
    "iso3": "POL",
    "admin_name": "Lubuskie",
    "capital": "admin",
    "population": 216781,
    "id": 1616050904
  },
  {
    "city": "Valencia",
    "city_ascii": "Valencia",
    "lat": 7.9042,
    "lng": 125.0928,
    "country": "Philippines",
    "iso2": "PH",
    "iso3": "PHL",
    "admin_name": "Bukidnon",
    "capital": "",
    "population": 216546,
    "id": 1608418474
  },
  {
    "city": "Ayacucho",
    "city_ascii": "Ayacucho",
    "lat": -13.1631,
    "lng": -74.2244,
    "country": "Peru",
    "iso2": "PE",
    "iso3": "PER",
    "admin_name": "Ayacucho",
    "capital": "admin",
    "population": 216444,
    "id": 1604300430
  },
  {
    "city": "Wellington",
    "city_ascii": "Wellington",
    "lat": -41.2889,
    "lng": 174.7772,
    "country": "New Zealand",
    "iso2": "NZ",
    "iso3": "NZL",
    "admin_name": "Wellington",
    "capital": "primary",
    "population": 216200,
    "id": 1554772152
  },
  {
    "city": "Lutsk",
    "city_ascii": "Lutsk",
    "lat": 50.75,
    "lng": 25.3358,
    "country": "Ukraine",
    "iso2": "UA",
    "iso3": "UKR",
    "admin_name": "Volynska Oblast",
    "capital": "admin",
    "population": 215986,
    "id": 1804014744
  },
  {
    "city": "La Ceiba",
    "city_ascii": "La Ceiba",
    "lat": 15.7792,
    "lng": -86.7931,
    "country": "Honduras",
    "iso2": "HN",
    "iso3": "HND",
    "admin_name": "Atlántida",
    "capital": "admin",
    "population": 215973,
    "id": 1340870189
  },
  {
    "city": "Tân An",
    "city_ascii": "Tan An",
    "lat": 10.5333,
    "lng": 106.4167,
    "country": "Vietnam",
    "iso2": "VN",
    "iso3": "VNM",
    "admin_name": "Long An",
    "capital": "admin",
    "population": 215250,
    "id": 1704199290
  },
  {
    "city": "San Rafael",
    "city_ascii": "San Rafael",
    "lat": -34.6,
    "lng": -68.3333,
    "country": "Argentina",
    "iso2": "AR",
    "iso3": "ARG",
    "admin_name": "Mendoza",
    "capital": "minor",
    "population": 215020,
    "id": 1032221516
  },
  {
    "city": "Sidi Aïssa",
    "city_ascii": "Sidi Aissa",
    "lat": 36.5,
    "lng": 4.2978,
    "country": "Algeria",
    "iso2": "DZ",
    "iso3": "DZA",
    "admin_name": "M’sila",
    "capital": "",
    "population": 215000,
    "id": 1012091250
  },
  {
    "city": "As Samāwah",
    "city_ascii": "As Samawah",
    "lat": 31.3167,
    "lng": 45.2833,
    "country": "Iraq",
    "iso2": "IQ",
    "iso3": "IRQ",
    "admin_name": "Al Muthanná",
    "capital": "admin",
    "population": 215000,
    "id": 1368246912
  },
  {
    "city": "Almere",
    "city_ascii": "Almere",
    "lat": 52.3667,
    "lng": 5.2167,
    "country": "Netherlands",
    "iso2": "NL",
    "iso3": "NLD",
    "admin_name": "Flevoland",
    "capital": "minor",
    "population": 214715,
    "id": 1528683566
  },
  {
    "city": "Chilas",
    "city_ascii": "Chilas",
    "lat": 35.4194,
    "lng": 74.0944,
    "country": "Pakistan",
    "iso2": "PK",
    "iso3": "PAK",
    "admin_name": "Gilgit-Baltistan",
    "capital": "minor",
    "population": 214000,
    "id": 1586064350
  },
  {
    "city": "Sikasso",
    "city_ascii": "Sikasso",
    "lat": 11.3167,
    "lng": -5.6667,
    "country": "Mali",
    "iso2": "ML",
    "iso3": "MLI",
    "admin_name": "Sikasso",
    "capital": "admin",
    "population": 213977,
    "id": 1466666150
  },
  {
    "city": "Sa Đéc",
    "city_ascii": "Sa Dec",
    "lat": 10.3,
    "lng": 105.7667,
    "country": "Vietnam",
    "iso2": "VN",
    "iso3": "VNM",
    "admin_name": "Đồng Tháp",
    "capital": "minor",
    "population": 213610,
    "id": 1704983576
  },
  {
    "city": "Norwich",
    "city_ascii": "Norwich",
    "lat": 52.6286,
    "lng": 1.2928,
    "country": "United Kingdom",
    "iso2": "GB",
    "iso3": "GBR",
    "admin_name": "Norfolk",
    "capital": "",
    "population": 213166,
    "id": 1826688051
  },
  {
    "city": "Luton",
    "city_ascii": "Luton",
    "lat": 51.8783,
    "lng": -0.4147,
    "country": "United Kingdom",
    "iso2": "GB",
    "iso3": "GBR",
    "admin_name": "Luton",
    "capital": "",
    "population": 213052,
    "id": 1826630574
  },
  {
    "city": "Sidi Bel Abbès",
    "city_ascii": "Sidi Bel Abbes",
    "lat": 35.1939,
    "lng": -0.6414,
    "country": "Algeria",
    "iso2": "DZ",
    "iso3": "DZA",
    "admin_name": "Sidi Bel Abbès",
    "capital": "admin",
    "population": 212935,
    "id": 1012123414
  },
  {
    "city": "Trondheim",
    "city_ascii": "Trondheim",
    "lat": 63.4297,
    "lng": 10.3933,
    "country": "Norway",
    "iso2": "NO",
    "iso3": "NOR",
    "admin_name": "Trøndelag",
    "capital": "minor",
    "population": 212660,
    "id": 1578633461
  },
  {
    "city": "Irákleio",
    "city_ascii": "Irakleio",
    "lat": 35.3403,
    "lng": 25.1344,
    "country": "Greece",
    "iso2": "GR",
    "iso3": "GRC",
    "admin_name": "Kríti",
    "capital": "admin",
    "population": 211370,
    "id": 1300777854
  },
  {
    "city": "Burgas",
    "city_ascii": "Burgas",
    "lat": 42.503,
    "lng": 27.4702,
    "country": "Bulgaria",
    "iso2": "BG",
    "iso3": "BGR",
    "admin_name": "Burgas",
    "capital": "admin",
    "population": 210813,
    "id": 1100365645
  },
  {
    "city": "Pagadian",
    "city_ascii": "Pagadian",
    "lat": 7.8272,
    "lng": 123.4364,
    "country": "Philippines",
    "iso2": "PH",
    "iso3": "PHL",
    "admin_name": "Zamboanga del Sur",
    "capital": "admin",
    "population": 210452,
    "id": 1608329397
  },
  {
    "city": "Kirātot",
    "city_ascii": "Kiratot",
    "lat": 32.8376,
    "lng": 76.2296,
    "country": "India",
    "iso2": "IN",
    "iso3": "IND",
    "admin_name": "Himāchal Pradesh",
    "capital": "",
    "population": 210406,
    "id": 1356118618
  }
]