[
  {
    "city": "Khabarovsk",
    "city_ascii": "Khabarovsk",
    "lat": 48.4833,
    "lng": 135.0833,
    "country": "Russia",
    "iso2": "RU",
    "iso3": "RUS",
    "admin_name": "Khabarovskiy Kray",
    "capital": "admin",
    "population": 616242,
    "id": 1643175363
  },
  {
    "city": "Leipzig",
    "city_ascii": "Leipzig",
    "lat": 51.34,
    "lng": 12.375,
    "country": "Germany",
    "iso2": "DE",
    "iso3": "DEU",
    "admin_name": "Saxony",
    "capital": "minor",
    "population": 616093,
    "id": 1276563678
  },
  {
    "city": "Ta‘izz",
    "city_ascii": "Ta`izz",
    "lat": 13.5789,
    "lng": 44.0219,
    "country": "Yemen",
    "iso2": "YE",
    "iso3": "YEM",
    "admin_name": "Ta‘izz",
    "capital": "admin",
    "population": 615467,
    "id": 1887324526
  },
  {
    "city": "Tallinn",
    "city_ascii": "Tallinn",
    "lat": 59.4372,
    "lng": 24.7453,
    "country": "Estonia",
    "iso2": "EE",
    "iso3": "EST",
    "admin_name": "Tallinn",
    "capital": "primary",
    "population": 614561,
    "id": 1233260021
  },
  {
    "city": "Kandahār",
    "city_ascii": "Kandahar",
    "lat": 31.62,
    "lng": 65.7158,
    "country": "Afghanistan",
    "iso2": "AF",
    "iso3": "AFG",
    "admin_name": "Kandahār",
    "capital": "admin",
    "population": 614254,
    "id": 1004003059
  },
  {
    "city": "Serang",
    "city_ascii": "Serang",
    "lat": -6.12,
    "lng": 106.1503,
    "country": "Indonesia",
    "iso2": "ID",
    "iso3": "IDN",
    "admin_name": "Banten",
    "capital": "admin",
    "population": 613356,
    "id": 1360329102
  },
  {
    "city": "Yukarıkaraman",
    "city_ascii": "Yukarikaraman",
    "lat": 36.9167,
    "lng": 30.6833,
    "country": "Turkey",
    "iso2": "TR",
    "iso3": "TUR",
    "admin_name": "Antalya",
    "capital": "",
    "population": 608675,
    "id": 1792276393
  },
  {
    "city": "Gothenburg",
    "city_ascii": "Gothenburg",
    "lat": 57.7075,
    "lng": 11.9675,
    "country": "Sweden",
    "iso2": "SE",
    "iso3": "SWE",
    "admin_name": "Västra Götaland",
    "capital": "admin",
    "population": 607882,
    "id": 1752059374
  },
  {
    "city": "Kuantan",
    "city_ascii": "Kuantan",
    "lat": 3.8167,
    "lng": 103.3333,
    "country": "Malaysia",
    "iso2": "MY",
    "iso3": "MYS",
    "admin_name": "Pahang",
    "capital": "admin",
    "population": 607778,
    "id": 1458763489
  },
  {
    "city": "Las Piñas City",
    "city_ascii": "Las Pinas City",
    "lat": 14.45,
    "lng": 120.98,
    "country": "Philippines",
    "iso2": "PH",
    "iso3": "PHL",
    "admin_name": "Las Piñas",
    "capital": "",
    "population": 606293,
    "id": 1608544537
  },
  {
    "city": "San Miguel de Tucumán",
    "city_ascii": "San Miguel de Tucuman",
    "lat": -26.8167,
    "lng": -65.2167,
    "country": "Argentina",
    "iso2": "AR",
    "iso3": "ARG",
    "admin_name": "Tucumán",
    "capital": "admin",
    "population": 605767,
    "id": 1032233996
  },
  {
    "city": "Ar Rayyān",
    "city_ascii": "Ar Rayyan",
    "lat": 25.25,
    "lng": 51.4,
    "country": "Qatar",
    "iso2": "QA",
    "iso3": "QAT",
    "admin_name": "Ar Rayyān",
    "capital": "admin",
    "population": 605712,
    "id": 1634097551
  },
  {
    "city": "Malanje",
    "city_ascii": "Malanje",
    "lat": -9.5333,
    "lng": 16.35,
    "country": "Angola",
    "iso2": "AO",
    "iso3": "AGO",
    "admin_name": "Malanje",
    "capital": "admin",
    "population": 604215,
    "id": 1024774947
  },
  {
    "city": "Djibouti",
    "city_ascii": "Djibouti",
    "lat": 11.5883,
    "lng": 43.145,
    "country": "Djibouti",
    "iso2": "DJ",
    "iso3": "DJI",
    "admin_name": "Djibouti",
    "capital": "primary",
    "population": 603900,
    "id": 1262028958
  },
  {
    "city": "Tunis",
    "city_ascii": "Tunis",
    "lat": 36.8064,
    "lng": 10.1817,
    "country": "Tunisia",
    "iso2": "TN",
    "iso3": "TUN",
    "admin_name": "Tunis",
    "capital": "primary",
    "population": 602560,
    "id": 1788742103
  },
  {
    "city": "Yaroslavl",
    "city_ascii": "Yaroslavl",
    "lat": 57.6167,
    "lng": 39.85,
    "country": "Russia",
    "iso2": "RU",
    "iso3": "RUS",
    "admin_name": "Yaroslavskaya Oblast’",
    "capital": "admin",
    "population": 601403,
    "id": 1643338528
  },
  {
    "city": "Bacolod",
    "city_ascii": "Bacolod",
    "lat": 10.6765,
    "lng": 122.9509,
    "country": "Philippines",
    "iso2": "PH",
    "iso3": "PHL",
    "admin_name": "Bacolod",
    "capital": "admin",
    "population": 600783,
    "id": 1608244137
  },
  {
    "city": "Garoua",
    "city_ascii": "Garoua",
    "lat": 9.3,
    "lng": 13.4,
    "country": "Cameroon",
    "iso2": "CM",
    "iso3": "CMR",
    "admin_name": "Nord",
    "capital": "admin",
    "population": 600000,
    "id": 1120803808
  },
  {
    "city": "Haifa",
    "city_ascii": "Haifa",
    "lat": 32.8192,
    "lng": 34.9992,
    "country": "Israel",
    "iso2": "IL",
    "iso3": "ISR",
    "admin_name": "Haifa",
    "capital": "admin",
    "population": 600000,
    "id": 1376133727
  },
  {
    "city": "Vladivostok",
    "city_ascii": "Vladivostok",
    "lat": 43.1333,
    "lng": 131.9,
    "country": "Russia",
    "iso2": "RU",
    "iso3": "RUS",
    "admin_name": "Primorskiy Kray",
    "capital": "admin",
    "population": 597240,
    "id": 1643832017
  },
  {
    "city": "Kagoshima",
    "city_ascii": "Kagoshima",
    "lat": 31.6,
    "lng": 130.55,
    "country": "Japan",
    "iso2": "JP",
    "iso3": "JPN",
    "admin_name": "Kagoshima",
    "capital": "admin",
    "population": 593754,
    "id": 1392120675
  },
  {
    "city": "Al Maḩallah al Kubrá",
    "city_ascii": "Al Mahallah al Kubra",
    "lat": 30.9686,
    "lng": 31.1636,
    "country": "Egypt",
    "iso2": "EG",
    "iso3": "EGY",
    "admin_name": "Al Gharbīyah",
    "capital": "",
    "population": 592573,
    "id": 1818406471
  },
  {
    "city": "Pereira",
    "city_ascii": "Pereira",
    "lat": 4.8143,
    "lng": -75.6946,
    "country": "Colombia",
    "iso2": "CO",
    "iso3": "COL",
    "admin_name": "Risaralda",
    "capital": "admin",
    "population": 590554,
    "id": 1170386718
  },
  {
    "city": "Reynosa",
    "city_ascii": "Reynosa",
    "lat": 26.0922,
    "lng": -98.2778,
    "country": "Mexico",
    "iso2": "MX",
    "iso3": "MEX",
    "admin_name": "Tamaulipas",
    "capital": "minor",
    "population": 589466,
    "id": 1484737671
  },
  {
    "city": "Zāhedān",
    "city_ascii": "Zahedan",
    "lat": 29.5025,
    "lng": 60.8558,
    "country": "Iran",
    "iso2": "IR",
    "iso3": "IRN",
    "admin_name": "Sīstān va Balūchestān",
    "capital": "admin",
    "population": 587730,
    "id": 1364072353
  },
  {
    "city": "Mbale",
    "city_ascii": "Mbale",
    "lat": 1.0806,
    "lng": 34.175,
    "country": "Uganda",
    "iso2": "UG",
    "iso3": "UGA",
    "admin_name": "Mbale",
    "capital": "admin",
    "population": 586300,
    "id": 1800265900
  },
  {
    "city": "Kingston",
    "city_ascii": "Kingston",
    "lat": 17.9714,
    "lng": -76.7931,
    "country": "Jamaica",
    "iso2": "JM",
    "iso3": "JAM",
    "admin_name": "Kingston",
    "capital": "primary",
    "population": 580000,
    "id": 1388709177
  },
  {
    "city": "Al Mafraq",
    "city_ascii": "Al Mafraq",
    "lat": 32.3399,
    "lng": 36.2052,
    "country": "Jordan",
    "iso2": "JO",
    "iso3": "JOR",
    "admin_name": "Al Mafraq",
    "capital": "admin",
    "population": 580000,
    "id": 1400040712
  },
  {
    "city": "Port Sudan",
    "city_ascii": "Port Sudan",
    "lat": 19.6167,
    "lng": 37.2167,
    "country": "Sudan",
    "iso2": "SD",
    "iso3": "SDN",
    "admin_name": "Red Sea",
    "capital": "admin",
    "population": 579942,
    "id": 1729710259
  },
  {
    "city": "Tuxtla",
    "city_ascii": "Tuxtla",
    "lat": 16.7528,
    "lng": -93.1167,
    "country": "Mexico",
    "iso2": "MX",
    "iso3": "MEX",
    "admin_name": "Chiapas",
    "capital": "admin",
    "population": 578830,
    "id": 1484832519
  },
  {
    "city": "Mymensingh",
    "city_ascii": "Mymensingh",
    "lat": 24.7539,
    "lng": 90.4031,
    "country": "Bangladesh",
    "iso2": "BD",
    "iso3": "BGD",
    "admin_name": "Mymensingh",
    "capital": "admin",
    "population": 576927,
    "id": 1050399881
  },
  {
    "city": "Iloilo",
    "city_ascii": "Iloilo",
    "lat": 10.72,
    "lng": 122.57,
    "country": "Philippines",
    "iso2": "PH",
    "iso3": "PHL",
    "admin_name": "Iloilo",
    "capital": "admin",
    "population": 574000,
    "id": 1608875987
  },
  {
    "city": "Tomsk",
    "city_ascii": "Tomsk",
    "lat": 56.5,
    "lng": 84.9667,
    "country": "Russia",
    "iso2": "RU",
    "iso3": "RUS",
    "admin_name": "Tomskaya Oblast’",
    "capital": "admin",
    "population": 572740,
    "id": 1643258928
  },
  {
    "city": "Nakuru",
    "city_ascii": "Nakuru",
    "lat": -0.3,
    "lng": 36.0667,
    "country": "Kenya",
    "iso2": "KE",
    "iso3": "KEN",
    "admin_name": "Nakuru",
    "capital": "admin",
    "population": 570674,
    "id": 1404140179
  },
  {
    "city": "Bremen",
    "city_ascii": "Bremen",
    "lat": 53.0758,
    "lng": 8.8072,
    "country": "Germany",
    "iso2": "DE",
    "iso3": "DEU",
    "admin_name": "Bremen",
    "capital": "admin",
    "population": 569396,
    "id": 1276376509
  },
  {
    "city": "Abū Ḩummuş",
    "city_ascii": "Abu Hummus",
    "lat": 31.1006,
    "lng": 30.3128,
    "country": "Egypt",
    "iso2": "EG",
    "iso3": "EGY",
    "admin_name": "Al Buḩayrah",
    "capital": "",
    "population": 569157,
    "id": 1818221429
  },
  {
    "city": "Irbid",
    "city_ascii": "Irbid",
    "lat": 32.55,
    "lng": 35.85,
    "country": "Jordan",
    "iso2": "JO",
    "iso3": "JOR",
    "admin_name": "Irbid",
    "capital": "admin",
    "population": 569068,
    "id": 1400221568
  },
  {
    "city": "Orenburg",
    "city_ascii": "Orenburg",
    "lat": 51.7833,
    "lng": 55.1,
    "country": "Russia",
    "iso2": "RU",
    "iso3": "RUS",
    "admin_name": "Orenburgskaya Oblast’",
    "capital": "admin",
    "population": 564773,
    "id": 1643685056
  },
  {
    "city": "Kemerovo",
    "city_ascii": "Kemerovo",
    "lat": 55.3667,
    "lng": 86.0667,
    "country": "Russia",
    "iso2": "RU",
    "iso3": "RUS",
    "admin_name": "Kemerovskaya Oblast’",
    "capital": "admin",
    "population": 558973,
    "id": 1643216311
  },
  {
    "city": "Genoa",
    "city_ascii": "Genoa",
    "lat": 44.4111,
    "lng": 8.9328,
    "country": "Italy",
    "iso2": "IT",
    "iso3": "ITA",
    "admin_name": "Liguria",
    "capital": "admin",
    "population": 558745,
    "id": 1380716540
  },
  {
    "city": "Herāt",
    "city_ascii": "Herat",
    "lat": 34.3419,
    "lng": 62.2031,
    "country": "Afghanistan",
    "iso2": "AF",
    "iso3": "AFG",
    "admin_name": "Herāt",
    "capital": "admin",
    "population": 556205,
    "id": 1004237782
  },
  {
    "city": "Uyo",
    "city_ascii": "Uyo",
    "lat": 5.0333,
    "lng": 7.9275,
    "country": "Nigeria",
    "iso2": "NG",
    "iso3": "NGA",
    "admin_name": "Akwa Ibom",
    "capital": "admin",
    "population": 554906,
    "id": 1566061694
  },
  {
    "city": "Chiclayo",
    "city_ascii": "Chiclayo",
    "lat": -6.763,
    "lng": -79.8366,
    "country": "Peru",
    "iso2": "PE",
    "iso3": "PER",
    "admin_name": "Lambayeque",
    "capital": "admin",
    "population": 552508,
    "id": 1604799615
  },
  {
    "city": "Palma",
    "city_ascii": "Palma",
    "lat": 39.5667,
    "lng": 2.65,
    "country": "Spain",
    "iso2": "ES",
    "iso3": "ESP",
    "admin_name": "Balearic Islands",
    "capital": "admin",
    "population": 550000,
    "id": 1724728111
  },
  {
    "city": "Rustenburg",
    "city_ascii": "Rustenburg",
    "lat": -25.6667,
    "lng": 27.2428,
    "country": "South Africa",
    "iso2": "ZA",
    "iso3": "ZAF",
    "admin_name": "North West",
    "capital": "",
    "population": 549575,
    "id": 1710326039
  },
  {
    "city": "Des Moines",
    "city_ascii": "Des Moines",
    "lat": 41.5725,
    "lng": -93.6105,
    "country": "United States",
    "iso2": "US",
    "iso3": "USA",
    "admin_name": "Iowa",
    "capital": "admin",
    "population": 548926,
    "id": 1840007069
  },
  {
    "city": "Lisbon",
    "city_ascii": "Lisbon",
    "lat": 38.7253,
    "lng": -9.15,
    "country": "Portugal",
    "iso2": "PT",
    "iso3": "PRT",
    "admin_name": "Lisboa",
    "capital": "primary",
    "population": 548703,
    "id": 1620619017
  },
  {
    "city": "Al Ḩudaydah",
    "city_ascii": "Al Hudaydah",
    "lat": 14.8022,
    "lng": 42.9511,
    "country": "Yemen",
    "iso2": "YE",
    "iso3": "YEM",
    "admin_name": "Al Ḩudaydah",
    "capital": "admin",
    "population": 548433,
    "id": 1887984890
  },
  {
    "city": "Andijon",
    "city_ascii": "Andijon",
    "lat": 40.7833,
    "lng": 72.3333,
    "country": "Uzbekistan",
    "iso2": "UZ",
    "iso3": "UZB",
    "admin_name": "Andijon",
    "capital": "admin",
    "population": 547800,
    "id": 1860445095
  },
  {
    "city": "Manchester",
    "city_ascii": "Manchester",
    "lat": 53.479,
    "lng": -2.2452,
    "country": "United Kingdom",
    "iso2": "GB",
    "iso3": "GBR",
    "admin_name": "Manchester",
    "capital": "",
    "population": 547627,
    "id": 1826246335
  }
]