[
  {
    "city": "Iqaluit",
    "city_ascii": "Iqaluit",
    "lat": 63.7598,
    "lng": -68.5107,
    "country": "Canada",
    "iso2": "CA",
    "iso3": "CAN",
    "admin_name": "Nunavut",
    "capital": "admin",
    "population": 7740,
    "id": 1124379539
  },
  {
    "city": "Luba",
    "city_ascii": "Luba",
    "lat": 3.45,
    "lng": 8.55,
    "country": "Equatorial Guinea",
    "iso2": "GQ",
    "iso3": "GNQ",
    "admin_name": "Bioko Sur",
    "capital": "admin",
    "population": 7739,
    "id": 1226278217
  },
  {
    "city": "Grosuplje",
    "city_ascii": "Grosuplje",
    "lat": 45.9551,
    "lng": 14.6562,
    "country": "Slovenia",
    "iso2": "SI",
    "iso3": "SVN",
    "admin_name": "Grosuplje",
    "capital": "admin",
    "population": 7703,
    "id": 1705847148
  },
  {
    "city": "Ludza",
    "city_ascii": "Ludza",
    "lat": 56.55,
    "lng": 27.7167,
    "country": "Latvia",
    "iso2": "LV",
    "iso3": "LVA",
    "admin_name": "Ludza",
    "capital": "admin",
    "population": 7640,
    "id": 1428976928
  },
  {
    "city": "Yeghegnadzor",
    "city_ascii": "Yeghegnadzor",
    "lat": 39.7611,
    "lng": 45.3333,
    "country": "Armenia",
    "iso2": "AM",
    "iso3": "ARM",
    "admin_name": "Vayots’ Dzor",
    "capital": "admin",
    "population": 7633,
    "id": 1051234787
  },
  {
    "city": "Yardımlı",
    "city_ascii": "Yardimli",
    "lat": 38.9206,
    "lng": 48.2372,
    "country": "Azerbaijan",
    "iso2": "AZ",
    "iso3": "AZE",
    "admin_name": "Yardımlı",
    "capital": "admin",
    "population": 7623,
    "id": 1031745676
  },
  {
    "city": "Mtskheta",
    "city_ascii": "Mtskheta",
    "lat": 41.8464,
    "lng": 44.7194,
    "country": "Georgia",
    "iso2": "GE",
    "iso3": "GEO",
    "admin_name": "Mtskheta Mtianeti",
    "capital": "admin",
    "population": 7606,
    "id": 1268173120
  },
  {
    "city": "Guadalupe",
    "city_ascii": "Guadalupe",
    "lat": 0.38,
    "lng": 6.6381,
    "country": "Sao Tome and Principe",
    "iso2": "ST",
    "iso3": "STP",
    "admin_name": "Lobata",
    "capital": "admin",
    "population": 7604,
    "id": 1678998597
  },
  {
    "city": "Kibale",
    "city_ascii": "Kibale",
    "lat": 0.7911,
    "lng": 31.075,
    "country": "Uganda",
    "iso2": "UG",
    "iso3": "UGA",
    "admin_name": "Kibaale",
    "capital": "",
    "population": 7600,
    "id": 1800354454
  },
  {
    "city": "Kelmė",
    "city_ascii": "Kelme",
    "lat": 55.6333,
    "lng": 22.9333,
    "country": "Lithuania",
    "iso2": "LT",
    "iso3": "LTU",
    "admin_name": "Kelmė",
    "capital": "admin",
    "population": 7512,
    "id": 1440476751
  },
  {
    "city": "Sen Monorom",
    "city_ascii": "Sen Monorom",
    "lat": 12.45,
    "lng": 107.2,
    "country": "Cambodia",
    "iso2": "KH",
    "iso3": "KHM",
    "admin_name": "Mondolkiri",
    "capital": "admin",
    "population": 7500,
    "id": 1116978997
  },
  {
    "city": "Bački Petrovac",
    "city_ascii": "Backi Petrovac",
    "lat": 45.3606,
    "lng": 19.5917,
    "country": "Serbia",
    "iso2": "RS",
    "iso3": "SRB",
    "admin_name": "Bački Petrovac",
    "capital": "admin",
    "population": 7452,
    "id": 1688400393
  },
  {
    "city": "Leova",
    "city_ascii": "Leova",
    "lat": 46.4833,
    "lng": 28.25,
    "country": "Moldova",
    "iso2": "MD",
    "iso3": "MDA",
    "admin_name": "Leova",
    "capital": "admin",
    "population": 7443,
    "id": 1498085636
  },
  {
    "city": "Kirkwall",
    "city_ascii": "Kirkwall",
    "lat": 58.981,
    "lng": -2.96,
    "country": "United Kingdom",
    "iso2": "GB",
    "iso3": "GBR",
    "admin_name": "Orkney Islands",
    "capital": "",
    "population": 7420,
    "id": 1826208698
  },
  {
    "city": "Ādaži",
    "city_ascii": "Adazi",
    "lat": 57.0667,
    "lng": 24.3333,
    "country": "Latvia",
    "iso2": "LV",
    "iso3": "LVA",
    "admin_name": "Ādaži",
    "capital": "admin",
    "population": 7387,
    "id": 1428843734
  },
  {
    "city": "Nangan",
    "city_ascii": "Nangan",
    "lat": 26.15,
    "lng": 119.9333,
    "country": "Taiwan",
    "iso2": "TW",
    "iso3": "TWN",
    "admin_name": "Lienchiang",
    "capital": "admin",
    "population": 7382,
    "id": 1158327079
  },
  {
    "city": "Ravne na Koroškem",
    "city_ascii": "Ravne na Koroskem",
    "lat": 46.5437,
    "lng": 14.9642,
    "country": "Slovenia",
    "iso2": "SI",
    "iso3": "SVN",
    "admin_name": "Ravne na Koroškem",
    "capital": "admin",
    "population": 7363,
    "id": 1705757622
  },
  {
    "city": "Aračinovo",
    "city_ascii": "Aracinovo",
    "lat": 42.0264,
    "lng": 21.5617,
    "country": "North Macedonia",
    "iso2": "MK",
    "iso3": "MKD",
    "admin_name": "Aračinovo",
    "capital": "admin",
    "population": 7315,
    "id": 1807619539
  },
  {
    "city": "Briceni",
    "city_ascii": "Briceni",
    "lat": 48.3611,
    "lng": 27.0839,
    "country": "Moldova",
    "iso2": "MD",
    "iso3": "MDA",
    "admin_name": "Briceni",
    "capital": "admin",
    "population": 7314,
    "id": 1498970287
  },
  {
    "city": "Lerik",
    "city_ascii": "Lerik",
    "lat": 38.7753,
    "lng": 48.4153,
    "country": "Azerbaijan",
    "iso2": "AZ",
    "iso3": "AZE",
    "admin_name": "Lerik",
    "capital": "admin",
    "population": 7301,
    "id": 1031887331
  },
  {
    "city": "Kičevo",
    "city_ascii": "Kicevo",
    "lat": 41.5142,
    "lng": 20.9631,
    "country": "North Macedonia",
    "iso2": "MK",
    "iso3": "MKD",
    "admin_name": "Kičevo",
    "capital": "admin",
    "population": 7280,
    "id": 1807895120
  },
  {
    "city": "Slovenj Gradec",
    "city_ascii": "Slovenj Gradec",
    "lat": 46.5094,
    "lng": 15.0792,
    "country": "Slovenia",
    "iso2": "SI",
    "iso3": "SVN",
    "admin_name": "Slovenj Gradec",
    "capital": "admin",
    "population": 7249,
    "id": 1705845238
  },
  {
    "city": "Teleneşti",
    "city_ascii": "Telenesti",
    "lat": 47.5028,
    "lng": 28.3667,
    "country": "Moldova",
    "iso2": "MD",
    "iso3": "MDA",
    "admin_name": "Teleneşti",
    "capital": "admin",
    "population": 7227,
    "id": 1498811064
  },
  {
    "city": "Lapovo",
    "city_ascii": "Lapovo",
    "lat": 44.1833,
    "lng": 21.1,
    "country": "Serbia",
    "iso2": "RS",
    "iso3": "SRB",
    "admin_name": "Lapovo",
    "capital": "admin",
    "population": 7143,
    "id": 1688267080
  },
  {
    "city": "Ruyigi",
    "city_ascii": "Ruyigi",
    "lat": -3.4833,
    "lng": 30.25,
    "country": "Burundi",
    "iso2": "BI",
    "iso3": "BDI",
    "admin_name": "Ruyigi",
    "capital": "admin",
    "population": 7139,
    "id": 1108406902
  },
  {
    "city": "Novobërdë",
    "city_ascii": "Novoberde",
    "lat": 42.6,
    "lng": 21.4333,
    "country": "Kosovo",
    "iso2": "XK",
    "iso3": "XKS",
    "admin_name": "Novobërdë",
    "capital": "admin",
    "population": 7121,
    "id": 1901684676
  },
  {
    "city": "Donduşeni",
    "city_ascii": "Donduseni",
    "lat": 48.2167,
    "lng": 27.5833,
    "country": "Moldova",
    "iso2": "MD",
    "iso3": "MDA",
    "admin_name": "Donduşeni",
    "capital": "admin",
    "population": 7101,
    "id": 1498280582
  },
  {
    "city": "Ştefan Vodă",
    "city_ascii": "Stefan Voda",
    "lat": 46.5153,
    "lng": 29.6631,
    "country": "Moldova",
    "iso2": "MD",
    "iso3": "MDA",
    "admin_name": "Ştefan Vodă",
    "capital": "admin",
    "population": 7078,
    "id": 1498766864
  },
  {
    "city": "Diekirch",
    "city_ascii": "Diekirch",
    "lat": 49.8681,
    "lng": 6.1567,
    "country": "Luxembourg",
    "iso2": "LU",
    "iso3": "LUX",
    "admin_name": "Diekirch",
    "capital": "admin",
    "population": 7047,
    "id": 1442382721
  },
  {
    "city": "In Guezzam",
    "city_ascii": "In Guezzam",
    "lat": 19.5686,
    "lng": 5.7722,
    "country": "Algeria",
    "iso2": "DZ",
    "iso3": "DZA",
    "admin_name": "In Guezzam",
    "capital": "admin",
    "population": 7045,
    "id": 1012000031
  },
  {
    "city": "Oğuz",
    "city_ascii": "Oguz",
    "lat": 41.0708,
    "lng": 47.4583,
    "country": "Azerbaijan",
    "iso2": "AZ",
    "iso3": "AZE",
    "admin_name": "Oğuz",
    "capital": "admin",
    "population": 7002,
    "id": 1031370337
  },
  {
    "city": "Krāslava",
    "city_ascii": "Kraslava",
    "lat": 55.8833,
    "lng": 27.1667,
    "country": "Latvia",
    "iso2": "LV",
    "iso3": "LVA",
    "admin_name": "Krāslava",
    "capital": "admin",
    "population": 6997,
    "id": 1428739484
  },
  {
    "city": "Novi Kneževac",
    "city_ascii": "Novi Knezevac",
    "lat": 46.05,
    "lng": 20.1,
    "country": "Serbia",
    "iso2": "RS",
    "iso3": "SRB",
    "admin_name": "Novi Kneževac",
    "capital": "admin",
    "population": 6960,
    "id": 1688706489
  },
  {
    "city": "Aizkraukle",
    "city_ascii": "Aizkraukle",
    "lat": 56.6042,
    "lng": 25.2539,
    "country": "Latvia",
    "iso2": "LV",
    "iso3": "LVA",
    "admin_name": "Aizkraukle",
    "capital": "admin",
    "population": 6947,
    "id": 1428407271
  },
  {
    "city": "Santa Venera",
    "city_ascii": "Santa Venera",
    "lat": 35.8897,
    "lng": 14.4778,
    "country": "Malta",
    "iso2": "MT",
    "iso3": "MLT",
    "admin_name": "Santa Venera",
    "capital": "admin",
    "population": 6932,
    "id": 1470983296
  },
  {
    "city": "Hola",
    "city_ascii": "Hola",
    "lat": -1.5,
    "lng": 40.0333,
    "country": "Kenya",
    "iso2": "KE",
    "iso3": "KEN",
    "admin_name": "Tana River",
    "capital": "admin",
    "population": 6931,
    "id": 1404396632
  },
  {
    "city": "Līvāni",
    "city_ascii": "Livani",
    "lat": 56.3667,
    "lng": 26.1833,
    "country": "Latvia",
    "iso2": "LV",
    "iso3": "LVA",
    "admin_name": "Līvāni",
    "capital": "admin",
    "population": 6911,
    "id": 1428769984
  },
  {
    "city": "Victoria",
    "city_ascii": "Victoria",
    "lat": 36.0436,
    "lng": 14.2431,
    "country": "Malta",
    "iso2": "MT",
    "iso3": "MLT",
    "admin_name": "Rabat (Ghawdex)",
    "capital": "admin",
    "population": 6901,
    "id": 1470128499
  },
  {
    "city": "Kiruhura",
    "city_ascii": "Kiruhura",
    "lat": -0.21,
    "lng": 30.83,
    "country": "Uganda",
    "iso2": "UG",
    "iso3": "UGA",
    "admin_name": "Kiruhura",
    "capital": "admin",
    "population": 6900,
    "id": 1800198933
  },
  {
    "city": "Lerwick",
    "city_ascii": "Lerwick",
    "lat": 60.155,
    "lng": -1.145,
    "country": "United Kingdom",
    "iso2": "GB",
    "iso3": "GBR",
    "admin_name": "Shetland Islands",
    "capital": "",
    "population": 6880,
    "id": 1826896340
  },
  {
    "city": "Borgo Maggiore",
    "city_ascii": "Borgo Maggiore",
    "lat": 43.945,
    "lng": 12.4497,
    "country": "San Marino",
    "iso2": "SM",
    "iso3": "SMR",
    "admin_name": "Borgo Maggiore",
    "capital": "admin",
    "population": 6871,
    "id": 1674314187
  },
  {
    "city": "Obiliq",
    "city_ascii": "Obiliq",
    "lat": 42.69,
    "lng": 21.0778,
    "country": "Kosovo",
    "iso2": "XK",
    "iso3": "XKS",
    "admin_name": "Obiliq",
    "capital": "admin",
    "population": 6864,
    "id": 1901102771
  },
  {
    "city": "Brežice",
    "city_ascii": "Brezice",
    "lat": 45.9048,
    "lng": 15.5922,
    "country": "Slovenia",
    "iso2": "SI",
    "iso3": "SVN",
    "admin_name": "Brežice",
    "capital": "admin",
    "population": 6843,
    "id": 1705251132
  },
  {
    "city": "Ajdovščina",
    "city_ascii": "Ajdovscina",
    "lat": 45.8861,
    "lng": 13.9097,
    "country": "Slovenia",
    "iso2": "SI",
    "iso3": "SVN",
    "admin_name": "Ajdovščina",
    "capital": "admin",
    "population": 6843,
    "id": 1705580792
  },
  {
    "city": "Šalčininkai",
    "city_ascii": "Salcininkai",
    "lat": 54.3167,
    "lng": 25.3833,
    "country": "Lithuania",
    "iso2": "LT",
    "iso3": "LTU",
    "admin_name": "Šalčininkai",
    "capital": "admin",
    "population": 6841,
    "id": 1440401402
  },
  {
    "city": "Gulbene",
    "city_ascii": "Gulbene",
    "lat": 57.1667,
    "lng": 26.75,
    "country": "Latvia",
    "iso2": "LV",
    "iso3": "LVA",
    "admin_name": "Gulbene",
    "capital": "admin",
    "population": 6782,
    "id": 1428888445
  },
  {
    "city": "Criuleni",
    "city_ascii": "Criuleni",
    "lat": 47.2167,
    "lng": 29.1667,
    "country": "Moldova",
    "iso2": "MD",
    "iso3": "MDA",
    "admin_name": "Criuleni",
    "capital": "admin",
    "population": 6708,
    "id": 1498171854
  },
  {
    "city": "Limbaži",
    "city_ascii": "Limbazi",
    "lat": 57.5167,
    "lng": 24.7167,
    "country": "Latvia",
    "iso2": "LV",
    "iso3": "LVA",
    "admin_name": "Limbaži",
    "capital": "admin",
    "population": 6706,
    "id": 1428920312
  },
  {
    "city": "Litija",
    "city_ascii": "Litija",
    "lat": 46.0667,
    "lng": 14.8167,
    "country": "Slovenia",
    "iso2": "SI",
    "iso3": "SVN",
    "admin_name": "Litija",
    "capital": "admin",
    "population": 6688,
    "id": 1705902870
  },
  {
    "city": "Madona",
    "city_ascii": "Madona",
    "lat": 56.85,
    "lng": 26.2167,
    "country": "Latvia",
    "iso2": "LV",
    "iso3": "LVA",
    "admin_name": "Madona",
    "capital": "admin",
    "population": 6664,
    "id": 1428548117
  }
]