[
  {
    "city": "Mochudi",
    "city_ascii": "Mochudi",
    "lat": -24.4167,
    "lng": 26.15,
    "country": "Botswana",
    "iso2": "BW",
    "iso3": "BWA",
    "admin_name": "Kgatleng",
    "capital": "admin",
    "population": 44815,
    "id": 1072876960
  },
  {
    "city": "Zouerate",
    "city_ascii": "Zouerate",
    "lat": 22.7333,
    "lng": -12.4667,
    "country": "Mauritania",
    "iso2": "MR",
    "iso3": "MRT",
    "admin_name": "Tiris Zemmour",
    "capital": "admin",
    "population": 44649,
    "id": 1478799785
  },
  {
    "city": "Kitgum",
    "city_ascii": "Kitgum",
    "lat": 3.2889,
    "lng": 32.8778,
    "country": "Uganda",
    "iso2": "UG",
    "iso3": "UGA",
    "admin_name": "Kitgum",
    "capital": "admin",
    "population": 44604,
    "id": 1800380883
  },
  {
    "city": "Gori",
    "city_ascii": "Gori",
    "lat": 41.9667,
    "lng": 44.1,
    "country": "Georgia",
    "iso2": "GE",
    "iso3": "GEO",
    "admin_name": "Shida Kartli",
    "capital": "admin",
    "population": 44524,
    "id": 1268442763
  },
  {
    "city": "Pattani",
    "city_ascii": "Pattani",
    "lat": 6.8664,
    "lng": 101.2508,
    "country": "Thailand",
    "iso2": "TH",
    "iso3": "THA",
    "admin_name": "Pattani",
    "capital": "admin",
    "population": 44234,
    "id": 1764277891
  },
  {
    "city": "Merthyr Tudful",
    "city_ascii": "Merthyr Tudful",
    "lat": 51.743,
    "lng": -3.378,
    "country": "United Kingdom",
    "iso2": "GB",
    "iso3": "GBR",
    "admin_name": "Merthyr Tydfil",
    "capital": "",
    "population": 43820,
    "id": 1826737367
  },
  {
    "city": "Varaždin",
    "city_ascii": "Varazdin",
    "lat": 46.3081,
    "lng": 16.3378,
    "country": "Croatia",
    "iso2": "HR",
    "iso3": "HRV",
    "admin_name": "Varaždinska Županija",
    "capital": "admin",
    "population": 43782,
    "id": 1191291148
  },
  {
    "city": "Murzuq",
    "city_ascii": "Murzuq",
    "lat": 25.9,
    "lng": 13.9,
    "country": "Libya",
    "iso2": "LY",
    "iso3": "LBY",
    "admin_name": "Murzuq",
    "capital": "admin",
    "population": 43732,
    "id": 1434910333
  },
  {
    "city": "Bushenyi",
    "city_ascii": "Bushenyi",
    "lat": -0.5417,
    "lng": 30.1878,
    "country": "Uganda",
    "iso2": "UG",
    "iso3": "UGA",
    "admin_name": "Buhweju",
    "capital": "admin",
    "population": 43700,
    "id": 1800740334
  },
  {
    "city": "Kozáni",
    "city_ascii": "Kozani",
    "lat": 40.3,
    "lng": 21.7833,
    "country": "Greece",
    "iso2": "GR",
    "iso3": "GRC",
    "admin_name": "Dytikí Makedonía",
    "capital": "admin",
    "population": 43316,
    "id": 1300407295
  },
  {
    "city": "Silistra",
    "city_ascii": "Silistra",
    "lat": 44.1172,
    "lng": 27.2606,
    "country": "Bulgaria",
    "iso2": "BG",
    "iso3": "BGR",
    "admin_name": "Silistra",
    "capital": "admin",
    "population": 43265,
    "id": 1100458181
  },
  {
    "city": "Aleksinac",
    "city_ascii": "Aleksinac",
    "lat": 43.55,
    "lng": 21.7,
    "country": "Serbia",
    "iso2": "RS",
    "iso3": "SRB",
    "admin_name": "Aleksinac",
    "capital": "admin",
    "population": 43258,
    "id": 1688039133
  },
  {
    "city": "Kapan",
    "city_ascii": "Kapan",
    "lat": 39.2011,
    "lng": 46.415,
    "country": "Armenia",
    "iso2": "AM",
    "iso3": "ARM",
    "admin_name": "Syunik’",
    "capital": "admin",
    "population": 43190,
    "id": 1051527958
  },
  {
    "city": "Nagykanizsa",
    "city_ascii": "Nagykanizsa",
    "lat": 46.455,
    "lng": 16.9925,
    "country": "Hungary",
    "iso2": "HU",
    "iso3": "HUN",
    "admin_name": "Nagykanizsa",
    "capital": "admin",
    "population": 43188,
    "id": 1348509592
  },
  {
    "city": "Cumaribo",
    "city_ascii": "Cumaribo",
    "lat": 4.4333,
    "lng": -69.8,
    "country": "Colombia",
    "iso2": "CO",
    "iso3": "COL",
    "admin_name": "Vichada",
    "capital": "minor",
    "population": 43138,
    "id": 1170966663
  },
  {
    "city": "Dún Dealgan",
    "city_ascii": "Dun Dealgan",
    "lat": 54.0044,
    "lng": -6.4003,
    "country": "Ireland",
    "iso2": "IE",
    "iso3": "IRL",
    "admin_name": "Louth",
    "capital": "admin",
    "population": 43112,
    "id": 1372735852
  },
  {
    "city": "Santa Cruz",
    "city_ascii": "Santa Cruz",
    "lat": 32.6833,
    "lng": -16.8,
    "country": "Portugal",
    "iso2": "PT",
    "iso3": "PRT",
    "admin_name": "Madeira",
    "capital": "",
    "population": 43005,
    "id": 1620409939
  },
  {
    "city": "Lai Châu",
    "city_ascii": "Lai Chau",
    "lat": 22.3992,
    "lng": 103.4392,
    "country": "Vietnam",
    "iso2": "VN",
    "iso3": "VNM",
    "admin_name": "Lai Châu",
    "capital": "admin",
    "population": 42973,
    "id": 1704983526
  },
  {
    "city": "Badulla",
    "city_ascii": "Badulla",
    "lat": 6.9847,
    "lng": 81.0564,
    "country": "Sri Lanka",
    "iso2": "LK",
    "iso3": "LKA",
    "admin_name": "Uva",
    "capital": "admin",
    "population": 42923,
    "id": 1144962750
  },
  {
    "city": "Nueva Valencia",
    "city_ascii": "Nueva Valencia",
    "lat": 10.5259,
    "lng": 122.5398,
    "country": "Philippines",
    "iso2": "PH",
    "iso3": "PHL",
    "admin_name": "Guimaras",
    "capital": "",
    "population": 42771,
    "id": 1608858098
  },
  {
    "city": "Meru",
    "city_ascii": "Meru",
    "lat": 0.05,
    "lng": 37.65,
    "country": "Kenya",
    "iso2": "KE",
    "iso3": "KEN",
    "admin_name": "Meru",
    "capital": "admin",
    "population": 42677,
    "id": 1404588252
  },
  {
    "city": "Jincheng",
    "city_ascii": "Jincheng",
    "lat": 24.4167,
    "lng": 118.3167,
    "country": "Taiwan",
    "iso2": "TW",
    "iso3": "TWN",
    "admin_name": "Kinmen",
    "capital": "admin",
    "population": 42675,
    "id": 1158376441
  },
  {
    "city": "Quinhámel",
    "city_ascii": "Quinhamel",
    "lat": 11.8833,
    "lng": -15.85,
    "country": "Guinea-Bissau",
    "iso2": "GW",
    "iso3": "GNB",
    "admin_name": "Biombo",
    "capital": "admin",
    "population": 42659,
    "id": 1624877378
  },
  {
    "city": "Fianga",
    "city_ascii": "Fianga",
    "lat": 9.9153,
    "lng": 15.1375,
    "country": "Chad",
    "iso2": "TD",
    "iso3": "TCD",
    "admin_name": "Mayo-Kebbi-Est",
    "capital": "",
    "population": 42606,
    "id": 1148228151
  },
  {
    "city": "Šibenik",
    "city_ascii": "Sibenik",
    "lat": 43.735,
    "lng": 15.8906,
    "country": "Croatia",
    "iso2": "HR",
    "iso3": "HRV",
    "admin_name": "Šibensko-Kninska Županija",
    "capital": "admin",
    "population": 42599,
    "id": 1191444936
  },
  {
    "city": "Guarda",
    "city_ascii": "Guarda",
    "lat": 40.5333,
    "lng": -7.3333,
    "country": "Portugal",
    "iso2": "PT",
    "iso3": "PRT",
    "admin_name": "Guarda",
    "capital": "admin",
    "population": 42541,
    "id": 1620174984
  },
  {
    "city": "Si Sa Ket",
    "city_ascii": "Si Sa Ket",
    "lat": 15.1069,
    "lng": 104.3294,
    "country": "Thailand",
    "iso2": "TH",
    "iso3": "THA",
    "admin_name": "Si Sa Ket",
    "capital": "admin",
    "population": 42405,
    "id": 1764002764
  },
  {
    "city": "Iten",
    "city_ascii": "Iten",
    "lat": 0.6731,
    "lng": 35.5083,
    "country": "Kenya",
    "iso2": "KE",
    "iso3": "KEN",
    "admin_name": "Elgeyo/Marakwet",
    "capital": "admin",
    "population": 42312,
    "id": 1404000102
  },
  {
    "city": "Pallisa",
    "city_ascii": "Pallisa",
    "lat": 1.1675,
    "lng": 33.71,
    "country": "Uganda",
    "iso2": "UG",
    "iso3": "UGA",
    "admin_name": "Pallisa",
    "capital": "admin",
    "population": 42300,
    "id": 1800214906
  },
  {
    "city": "Smederevska Palanka",
    "city_ascii": "Smederevska Palanka",
    "lat": 44.3663,
    "lng": 20.9565,
    "country": "Serbia",
    "iso2": "RS",
    "iso3": "SRB",
    "admin_name": "Smederevska Palanka",
    "capital": "admin",
    "population": 42192,
    "id": 1688107292
  },
  {
    "city": "Miercurea-Ciuc",
    "city_ascii": "Miercurea-Ciuc",
    "lat": 46.3594,
    "lng": 25.8017,
    "country": "Romania",
    "iso2": "RO",
    "iso3": "ROU",
    "admin_name": "Harghita",
    "capital": "admin",
    "population": 42029,
    "id": 1642603145
  },
  {
    "city": "Štip",
    "city_ascii": "Stip",
    "lat": 41.7358,
    "lng": 22.1914,
    "country": "North Macedonia",
    "iso2": "MK",
    "iso3": "MKD",
    "admin_name": "Štip",
    "capital": "admin",
    "population": 42000,
    "id": 1807614061
  },
  {
    "city": "Greenock",
    "city_ascii": "Greenock",
    "lat": 55.95,
    "lng": -4.765,
    "country": "United Kingdom",
    "iso2": "GB",
    "iso3": "GBR",
    "admin_name": "Inverclyde",
    "capital": "",
    "population": 41990,
    "id": 1826864377
  },
  {
    "city": "Mercedes",
    "city_ascii": "Mercedes",
    "lat": -33.25,
    "lng": -58.0333,
    "country": "Uruguay",
    "iso2": "UY",
    "iso3": "URY",
    "admin_name": "Soriano",
    "capital": "admin",
    "population": 41974,
    "id": 1858182538
  },
  {
    "city": "Hódmezővásárhely",
    "city_ascii": "Hodmezovasarhely",
    "lat": 46.4304,
    "lng": 20.3188,
    "country": "Hungary",
    "iso2": "HU",
    "iso3": "HUN",
    "admin_name": "Hódmezővásárhely",
    "capital": "admin",
    "population": 41944,
    "id": 1348676241
  },
  {
    "city": "Tororo",
    "city_ascii": "Tororo",
    "lat": 0.6928,
    "lng": 34.1811,
    "country": "Uganda",
    "iso2": "UG",
    "iso3": "UGA",
    "admin_name": "Tororo",
    "capital": "admin",
    "population": 41906,
    "id": 1800214991
  },
  {
    "city": "Ban Wat Lak Hok",
    "city_ascii": "Ban Wat Lak Hok",
    "lat": 13.5633,
    "lng": 100.0564,
    "country": "Thailand",
    "iso2": "TH",
    "iso3": "THA",
    "admin_name": "Ratchaburi",
    "capital": "",
    "population": 41884,
    "id": 1764000965
  },
  {
    "city": "Dunaújváros",
    "city_ascii": "Dunaujvaros",
    "lat": 46.9806,
    "lng": 18.9127,
    "country": "Hungary",
    "iso2": "HU",
    "iso3": "HUN",
    "admin_name": "Dunaújváros",
    "capital": "admin",
    "population": 41873,
    "id": 1348928583
  },
  {
    "city": "Kalmar",
    "city_ascii": "Kalmar",
    "lat": 56.6614,
    "lng": 16.3628,
    "country": "Sweden",
    "iso2": "SE",
    "iso3": "SWE",
    "admin_name": "Kalmar",
    "capital": "admin",
    "population": 41852,
    "id": 1752640618
  },
  {
    "city": "Beitbridge",
    "city_ascii": "Beitbridge",
    "lat": -22.2167,
    "lng": 30,
    "country": "Zimbabwe",
    "iso2": "ZW",
    "iso3": "ZWE",
    "admin_name": "Matabeleland South",
    "capital": "",
    "population": 41767,
    "id": 1716929295
  },
  {
    "city": "Santa Bárbara",
    "city_ascii": "Santa Barbara",
    "lat": 14.9167,
    "lng": -88.2333,
    "country": "Honduras",
    "iso2": "HN",
    "iso3": "HND",
    "admin_name": "Santa Bárbara",
    "capital": "admin",
    "population": 41736,
    "id": 1340312026
  },
  {
    "city": "Bodø",
    "city_ascii": "Bodo",
    "lat": 67.2827,
    "lng": 14.3751,
    "country": "Norway",
    "iso2": "NO",
    "iso3": "NOR",
    "admin_name": "Nordland",
    "capital": "admin",
    "population": 41720,
    "id": 1578023501
  },
  {
    "city": "Kampong Chhnang",
    "city_ascii": "Kampong Chhnang",
    "lat": 12.25,
    "lng": 104.6667,
    "country": "Cambodia",
    "iso2": "KH",
    "iso3": "KHM",
    "admin_name": "Kampong Chhnang",
    "capital": "admin",
    "population": 41700,
    "id": 1116735270
  },
  {
    "city": "Su-ngai Kolok",
    "city_ascii": "Su-ngai Kolok",
    "lat": 6.0333,
    "lng": 101.9667,
    "country": "Thailand",
    "iso2": "TH",
    "iso3": "THA",
    "admin_name": "Narathiwat",
    "capital": "minor",
    "population": 41590,
    "id": 1764527716
  },
  {
    "city": "Dubrovnik",
    "city_ascii": "Dubrovnik",
    "lat": 42.6403,
    "lng": 18.1083,
    "country": "Croatia",
    "iso2": "HR",
    "iso3": "HRV",
    "admin_name": "Dubrovačko-Neretvanska Županija",
    "capital": "admin",
    "population": 41562,
    "id": 1191004286
  },
  {
    "city": "Slobozia",
    "city_ascii": "Slobozia",
    "lat": 44.5639,
    "lng": 27.3661,
    "country": "Romania",
    "iso2": "RO",
    "iso3": "ROU",
    "admin_name": "Ialomiţa",
    "capital": "admin",
    "population": 41550,
    "id": 1642971618
  },
  {
    "city": "Lindi",
    "city_ascii": "Lindi",
    "lat": -9.9969,
    "lng": 39.7144,
    "country": "Tanzania",
    "iso2": "TZ",
    "iso3": "TZA",
    "admin_name": "Lindi",
    "capital": "admin",
    "population": 41549,
    "id": 1834550750
  },
  {
    "city": "Puntarenas",
    "city_ascii": "Puntarenas",
    "lat": 9.9667,
    "lng": -84.8333,
    "country": "Costa Rica",
    "iso2": "CR",
    "iso3": "CRI",
    "admin_name": "Puntarenas",
    "capital": "admin",
    "population": 41528,
    "id": 1188639267
  },
  {
    "city": "Poti",
    "city_ascii": "Poti",
    "lat": 42.15,
    "lng": 41.6667,
    "country": "Georgia",
    "iso2": "GE",
    "iso3": "GEO",
    "admin_name": "Samegrelo-Zemo Svaneti",
    "capital": "minor",
    "population": 41500,
    "id": 1268764439
  },
  {
    "city": "Sutton",
    "city_ascii": "Sutton",
    "lat": 51.3656,
    "lng": -0.1963,
    "country": "United Kingdom",
    "iso2": "GB",
    "iso3": "GBR",
    "admin_name": "Sutton",
    "capital": "",
    "population": 41483,
    "id": 1826827095
  }
]