[
  {
    "city": "Bahir Dar",
    "city_ascii": "Bahir Dar",
    "lat": 11.6,
    "lng": 37.3833,
    "country": "Ethiopia",
    "iso2": "ET",
    "iso3": "ETH",
    "admin_name": "Āmara",
    "capital": "admin",
    "population": 243300,
    "id": 1231784118
  },
  {
    "city": "Myitkyina",
    "city_ascii": "Myitkyina",
    "lat": 25.3833,
    "lng": 97.4,
    "country": "Burma",
    "iso2": "MM",
    "iso3": "MMR",
    "admin_name": "Kachin State",
    "capital": "admin",
    "population": 243031,
    "id": 1104327329
  },
  {
    "city": "Tuy Hòa",
    "city_ascii": "Tuy Hoa",
    "lat": 13.0819,
    "lng": 109.295,
    "country": "Vietnam",
    "iso2": "VN",
    "iso3": "VNM",
    "admin_name": "Phú Yên",
    "capital": "admin",
    "population": 242840,
    "id": 1704697424
  },
  {
    "city": "Birāṭnagar",
    "city_ascii": "Biratnagar",
    "lat": 26.4542,
    "lng": 87.2797,
    "country": "Nepal",
    "iso2": "NP",
    "iso3": "NPL",
    "admin_name": "Province Number One",
    "capital": "admin",
    "population": 242548,
    "id": 1524520011
  },
  {
    "city": "Qyzylorda",
    "city_ascii": "Qyzylorda",
    "lat": 44.85,
    "lng": 65.5167,
    "country": "Kazakhstan",
    "iso2": "KZ",
    "iso3": "KAZ",
    "admin_name": "Qyzylorda",
    "capital": "admin",
    "population": 242462,
    "id": 1398248334
  },
  {
    "city": "Kahama",
    "city_ascii": "Kahama",
    "lat": -3.8375,
    "lng": 32.6,
    "country": "Tanzania",
    "iso2": "TZ",
    "iso3": "TZA",
    "admin_name": "Shinyanga",
    "capital": "",
    "population": 242208,
    "id": 1834043034
  },
  {
    "city": "Halle",
    "city_ascii": "Halle",
    "lat": 51.4828,
    "lng": 11.9697,
    "country": "Germany",
    "iso2": "DE",
    "iso3": "DEU",
    "admin_name": "Saxony-Anhalt",
    "capital": "minor",
    "population": 242083,
    "id": 1276167077
  },
  {
    "city": "Man",
    "city_ascii": "Man",
    "lat": 7.4,
    "lng": -7.55,
    "country": "Côte d’Ivoire",
    "iso2": "CI",
    "iso3": "CIV",
    "admin_name": "Montagnes",
    "capital": "admin",
    "population": 241969,
    "id": 1384112524
  },
  {
    "city": "Haeju",
    "city_ascii": "Haeju",
    "lat": 38.0333,
    "lng": 125.7167,
    "country": "Korea, North",
    "iso2": "KP",
    "iso3": "PRK",
    "admin_name": "Hwangnam",
    "capital": "admin",
    "population": 241599,
    "id": 1408348983
  },
  {
    "city": "Düzce",
    "city_ascii": "Duzce",
    "lat": 40.8417,
    "lng": 31.1583,
    "country": "Turkey",
    "iso2": "TR",
    "iso3": "TUR",
    "admin_name": "Düzce",
    "capital": "admin",
    "population": 240633,
    "id": 1792999306
  },
  {
    "city": "Tarapoto",
    "city_ascii": "Tarapoto",
    "lat": -6.4833,
    "lng": -76.3667,
    "country": "Peru",
    "iso2": "PE",
    "iso3": "PER",
    "admin_name": "San Martín",
    "capital": "",
    "population": 240453,
    "id": 1604622202
  },
  {
    "city": "Szeged",
    "city_ascii": "Szeged",
    "lat": 46.255,
    "lng": 20.145,
    "country": "Hungary",
    "iso2": "HU",
    "iso3": "HUN",
    "admin_name": "Csongrád-Csanád",
    "capital": "admin",
    "population": 239025,
    "id": 1348655615
  },
  {
    "city": "Chimoio",
    "city_ascii": "Chimoio",
    "lat": -19.1167,
    "lng": 33.45,
    "country": "Mozambique",
    "iso2": "MZ",
    "iso3": "MOZ",
    "admin_name": "Manica",
    "capital": "admin",
    "population": 238976,
    "id": 1508460246
  },
  {
    "city": "Ivano-Frankivsk",
    "city_ascii": "Ivano-Frankivsk",
    "lat": 48.9228,
    "lng": 24.7106,
    "country": "Ukraine",
    "iso2": "UA",
    "iso3": "UKR",
    "admin_name": "Ivano-Frankivska Oblast",
    "capital": "admin",
    "population": 238196,
    "id": 1804208152
  },
  {
    "city": "Nyíregyháza",
    "city_ascii": "Nyiregyhaza",
    "lat": 47.9531,
    "lng": 21.7271,
    "country": "Hungary",
    "iso2": "HU",
    "iso3": "HUN",
    "admin_name": "Szabolcs-Szatmár-Bereg",
    "capital": "admin",
    "population": 238020,
    "id": 1348653343
  },
  {
    "city": "Braşov",
    "city_ascii": "Brasov",
    "lat": 45.6667,
    "lng": 25.6167,
    "country": "Romania",
    "iso2": "RO",
    "iso3": "ROU",
    "admin_name": "Braşov",
    "capital": "admin",
    "population": 237589,
    "id": 1642328429
  },
  {
    "city": "Stavanger",
    "city_ascii": "Stavanger",
    "lat": 58.97,
    "lng": 5.7314,
    "country": "Norway",
    "iso2": "NO",
    "iso3": "NOR",
    "admin_name": "Rogaland",
    "capital": "admin",
    "population": 237369,
    "id": 1578801684
  },
  {
    "city": "Djougou",
    "city_ascii": "Djougou",
    "lat": 9.7,
    "lng": 1.6667,
    "country": "Benin",
    "iso2": "BJ",
    "iso3": "BEN",
    "admin_name": "Donga",
    "capital": "admin",
    "population": 237040,
    "id": 1204972666
  },
  {
    "city": "Lille",
    "city_ascii": "Lille",
    "lat": 50.6278,
    "lng": 3.0583,
    "country": "France",
    "iso2": "FR",
    "iso3": "FRA",
    "admin_name": "Hauts-de-France",
    "capital": "admin",
    "population": 236710,
    "id": 1250071961
  },
  {
    "city": "Abhā",
    "city_ascii": "Abha",
    "lat": 18.2169,
    "lng": 42.5053,
    "country": "Saudi Arabia",
    "iso2": "SA",
    "iso3": "SAU",
    "admin_name": "‘Asīr",
    "capital": "admin",
    "population": 236157,
    "id": 1682759151
  },
  {
    "city": "Al Minyā",
    "city_ascii": "Al Minya",
    "lat": 28.1194,
    "lng": 30.7444,
    "country": "Egypt",
    "iso2": "EG",
    "iso3": "EGY",
    "admin_name": "Al Minyā",
    "capital": "admin",
    "population": 236043,
    "id": 1818607968
  },
  {
    "city": "Gaborone",
    "city_ascii": "Gaborone",
    "lat": -24.6581,
    "lng": 25.9122,
    "country": "Botswana",
    "iso2": "BW",
    "iso3": "BWA",
    "admin_name": "Gaborone",
    "capital": "primary",
    "population": 235884,
    "id": 1072756768
  },
  {
    "city": "Zinder",
    "city_ascii": "Zinder",
    "lat": 13.8053,
    "lng": 8.9883,
    "country": "Niger",
    "iso2": "NE",
    "iso3": "NER",
    "admin_name": "Zinder",
    "capital": "admin",
    "population": 235605,
    "id": 1562758258
  },
  {
    "city": "Banda Aceh",
    "city_ascii": "Banda Aceh",
    "lat": 5.55,
    "lng": 95.3175,
    "country": "Indonesia",
    "iso2": "ID",
    "iso3": "IDN",
    "admin_name": "Aceh",
    "capital": "admin",
    "population": 235305,
    "id": 1360353144
  },
  {
    "city": "Bayamo",
    "city_ascii": "Bayamo",
    "lat": 20.3817,
    "lng": -76.6428,
    "country": "Cuba",
    "iso2": "CU",
    "iso3": "CUB",
    "admin_name": "Granma",
    "capital": "admin",
    "population": 235107,
    "id": 1192297857
  },
  {
    "city": "Limassol",
    "city_ascii": "Limassol",
    "lat": 34.6747,
    "lng": 33.0442,
    "country": "Cyprus",
    "iso2": "CY",
    "iso3": "CYP",
    "admin_name": "Lemesós",
    "capital": "admin",
    "population": 235056,
    "id": 1196136222
  },
  {
    "city": "Oral",
    "city_ascii": "Oral",
    "lat": 51.2225,
    "lng": 51.3725,
    "country": "Kazakhstan",
    "iso2": "KZ",
    "iso3": "KAZ",
    "admin_name": "West Kazakhstan",
    "capital": "admin",
    "population": 234184,
    "id": 1398593972
  },
  {
    "city": "Craiova",
    "city_ascii": "Craiova",
    "lat": 44.3333,
    "lng": 23.8167,
    "country": "Romania",
    "iso2": "RO",
    "iso3": "ROU",
    "admin_name": "Dolj",
    "capital": "admin",
    "population": 234140,
    "id": 1642859458
  },
  {
    "city": "Formosa",
    "city_ascii": "Formosa",
    "lat": -26.1833,
    "lng": -58.1833,
    "country": "Argentina",
    "iso2": "AR",
    "iso3": "ARG",
    "admin_name": "Formosa",
    "capital": "admin",
    "population": 234000,
    "id": 1032802536
  },
  {
    "city": "Bo",
    "city_ascii": "Bo",
    "lat": 7.9564,
    "lng": -11.74,
    "country": "Sierra Leone",
    "iso2": "SL",
    "iso3": "SLE",
    "admin_name": "Southern",
    "capital": "admin",
    "population": 233684,
    "id": 1694651111
  },
  {
    "city": "Mambéré",
    "city_ascii": "Mambere",
    "lat": 5.5,
    "lng": 15.5,
    "country": "Central African Republic",
    "iso2": "CF",
    "iso3": "CAF",
    "admin_name": "Nana-Mambéré",
    "capital": "",
    "population": 233666,
    "id": 1140081585
  },
  {
    "city": "Groningen",
    "city_ascii": "Groningen",
    "lat": 53.2189,
    "lng": 6.5675,
    "country": "Netherlands",
    "iso2": "NL",
    "iso3": "NLD",
    "admin_name": "Groningen",
    "capital": "admin",
    "population": 233273,
    "id": 1528295161
  },
  {
    "city": "San Cristóbal",
    "city_ascii": "San Cristobal",
    "lat": 18.4167,
    "lng": -70.1056,
    "country": "Dominican Republic",
    "iso2": "DO",
    "iso3": "DOM",
    "admin_name": "Valdesia",
    "capital": "admin",
    "population": 232769,
    "id": 1214335207
  },
  {
    "city": "Saga",
    "city_ascii": "Saga",
    "lat": 33.2667,
    "lng": 130.3,
    "country": "Japan",
    "iso2": "JP",
    "iso3": "JPN",
    "admin_name": "Saga",
    "capital": "admin",
    "population": 232359,
    "id": 1392618841
  },
  {
    "city": "Rancagua",
    "city_ascii": "Rancagua",
    "lat": -34.1667,
    "lng": -70.75,
    "country": "Chile",
    "iso2": "CL",
    "iso3": "CHL",
    "admin_name": "Libertador General Bernardo O’Higgins",
    "capital": "admin",
    "population": 231370,
    "id": 1152672356
  },
  {
    "city": "Neuquén",
    "city_ascii": "Neuquen",
    "lat": -38.9525,
    "lng": -68.0642,
    "country": "Argentina",
    "iso2": "AR",
    "iso3": "ARG",
    "admin_name": "Neuquén",
    "capital": "admin",
    "population": 231198,
    "id": 1032525768
  },
  {
    "city": "Ormoc",
    "city_ascii": "Ormoc",
    "lat": 11.0106,
    "lng": 124.6075,
    "country": "Philippines",
    "iso2": "PH",
    "iso3": "PHL",
    "admin_name": "Ormoc",
    "capital": "admin",
    "population": 230998,
    "id": 1608269612
  },
  {
    "city": "Fresnillo",
    "city_ascii": "Fresnillo",
    "lat": 23.175,
    "lng": -102.8675,
    "country": "Mexico",
    "iso2": "MX",
    "iso3": "MEX",
    "admin_name": "Zacatecas",
    "capital": "minor",
    "population": 230865,
    "id": 1484014035
  },
  {
    "city": "Barishal",
    "city_ascii": "Barishal",
    "lat": 22.7,
    "lng": 90.3667,
    "country": "Bangladesh",
    "iso2": "BD",
    "iso3": "BGD",
    "admin_name": "Barishal",
    "capital": "admin",
    "population": 230000,
    "id": 1050297281
  },
  {
    "city": "Ordu",
    "city_ascii": "Ordu",
    "lat": 40.9833,
    "lng": 37.8833,
    "country": "Turkey",
    "iso2": "TR",
    "iso3": "TUR",
    "admin_name": "Ordu",
    "capital": "admin",
    "population": 229214,
    "id": 1792540951
  },
  {
    "city": "Košice",
    "city_ascii": "Kosice",
    "lat": 48.7167,
    "lng": 21.25,
    "country": "Slovakia",
    "iso2": "SK",
    "iso3": "SVK",
    "admin_name": "Košice",
    "capital": "admin",
    "population": 229040,
    "id": 1703452690
  },
  {
    "city": "Khénifra",
    "city_ascii": "Khenifra",
    "lat": 32.9394,
    "lng": -5.6675,
    "country": "Morocco",
    "iso2": "MA",
    "iso3": "MAR",
    "admin_name": "Béni Mellal-Khénifra",
    "capital": "",
    "population": 228567,
    "id": 1504143530
  },
  {
    "city": "Guantánamo",
    "city_ascii": "Guantanamo",
    "lat": 20.1367,
    "lng": -75.2139,
    "country": "Cuba",
    "iso2": "CU",
    "iso3": "CUB",
    "admin_name": "Guantánamo",
    "capital": "admin",
    "population": 228436,
    "id": 1192866062
  },
  {
    "city": "Şabyā",
    "city_ascii": "Sabya",
    "lat": 17.1489,
    "lng": 42.6258,
    "country": "Saudi Arabia",
    "iso2": "SA",
    "iso3": "SAU",
    "admin_name": "Jāzān",
    "capital": "",
    "population": 228375,
    "id": 1682601560
  },
  {
    "city": "Fargo",
    "city_ascii": "Fargo",
    "lat": 46.8651,
    "lng": -96.8292,
    "country": "United States",
    "iso2": "US",
    "iso3": "USA",
    "admin_name": "North Dakota",
    "capital": "",
    "population": 228364,
    "id": 1840000177
  },
  {
    "city": "Uşak",
    "city_ascii": "Usak",
    "lat": 38.6778,
    "lng": 29.4042,
    "country": "Turkey",
    "iso2": "TR",
    "iso3": "TUR",
    "admin_name": "Uşak",
    "capital": "admin",
    "population": 228328,
    "id": 1792360822
  },
  {
    "city": "Kropyvnytskyi",
    "city_ascii": "Kropyvnytskyi",
    "lat": 48.5,
    "lng": 32.2667,
    "country": "Ukraine",
    "iso2": "UA",
    "iso3": "UKR",
    "admin_name": "Kirovohradska Oblast",
    "capital": "admin",
    "population": 227413,
    "id": 1804374492
  },
  {
    "city": "Daşoguz",
    "city_ascii": "Dasoguz",
    "lat": 41.8333,
    "lng": 59.9667,
    "country": "Turkmenistan",
    "iso2": "TM",
    "iso3": "TKM",
    "admin_name": "Daşoguz",
    "capital": "admin",
    "population": 227184,
    "id": 1795167397
  },
  {
    "city": "Changhua",
    "city_ascii": "Changhua",
    "lat": 24.0667,
    "lng": 120.5333,
    "country": "Taiwan",
    "iso2": "TW",
    "iso3": "TWN",
    "admin_name": "Changhua",
    "capital": "admin",
    "population": 226518,
    "id": 1158439005
  },
  {
    "city": "Ternopil",
    "city_ascii": "Ternopil",
    "lat": 49.5667,
    "lng": 25.6,
    "country": "Ukraine",
    "iso2": "UA",
    "iso3": "UKR",
    "admin_name": "Ternopilska Oblast",
    "capital": "admin",
    "population": 225238,
    "id": 1804000146
  }
]