[
  {
    "city": "Nola",
    "city_ascii": "Nola",
    "lat": 3.5333,
    "lng": 16.0667,
    "country": "Central African Republic",
    "iso2": "CF",
    "iso3": "CAF",
    "admin_name": "Sangha-Mbaéré",
    "capital": "admin",
    "population": 41462,
    "id": 1140236347
  },
  {
    "city": "Svay Rieng",
    "city_ascii": "Svay Rieng",
    "lat": 11.0833,
    "lng": 105.8,
    "country": "Cambodia",
    "iso2": "KH",
    "iso3": "KHM",
    "admin_name": "Svay Rieng",
    "capital": "admin",
    "population": 41424,
    "id": 1116432743
  },
  {
    "city": "Caerphilly",
    "city_ascii": "Caerphilly",
    "lat": 51.578,
    "lng": -3.218,
    "country": "United Kingdom",
    "iso2": "GB",
    "iso3": "GBR",
    "admin_name": "Caerphilly",
    "capital": "",
    "population": 41402,
    "id": 1826322639
  },
  {
    "city": "Nebbi",
    "city_ascii": "Nebbi",
    "lat": 2.4792,
    "lng": 31.09,
    "country": "Uganda",
    "iso2": "UG",
    "iso3": "UGA",
    "admin_name": "Nebbi",
    "capital": "admin",
    "population": 41400,
    "id": 1800598019
  },
  {
    "city": "Bambari",
    "city_ascii": "Bambari",
    "lat": 5.7653,
    "lng": 20.6742,
    "country": "Central African Republic",
    "iso2": "CF",
    "iso3": "CAF",
    "admin_name": "Ouaka",
    "capital": "admin",
    "population": 41356,
    "id": 1140304277
  },
  {
    "city": "Zákynthos",
    "city_ascii": "Zakynthos",
    "lat": 37.8,
    "lng": 20.75,
    "country": "Greece",
    "iso2": "GR",
    "iso3": "GRC",
    "admin_name": "Ionía Nísia",
    "capital": "minor",
    "population": 41180,
    "id": 1300442690
  },
  {
    "city": "Ganta",
    "city_ascii": "Ganta",
    "lat": 7.2375,
    "lng": -8.9814,
    "country": "Liberia",
    "iso2": "LR",
    "iso3": "LBR",
    "admin_name": "Nimba",
    "capital": "",
    "population": 41106,
    "id": 1430766691
  },
  {
    "city": "Mambajao",
    "city_ascii": "Mambajao",
    "lat": 9.25,
    "lng": 124.72,
    "country": "Philippines",
    "iso2": "PH",
    "iso3": "PHL",
    "admin_name": "Camiguin",
    "capital": "admin",
    "population": 41094,
    "id": 1608281273
  },
  {
    "city": "Sevilla de Niefang",
    "city_ascii": "Sevilla de Niefang",
    "lat": 1.85,
    "lng": 10.25,
    "country": "Equatorial Guinea",
    "iso2": "GQ",
    "iso3": "GNQ",
    "admin_name": "Centro Sur",
    "capital": "",
    "population": 41084,
    "id": 1226184611
  },
  {
    "city": "Rivas",
    "city_ascii": "Rivas",
    "lat": 11.4393,
    "lng": -85.827,
    "country": "Nicaragua",
    "iso2": "NI",
    "iso3": "NIC",
    "admin_name": "Rivas",
    "capital": "admin",
    "population": 41080,
    "id": 1558146594
  },
  {
    "city": "Newbury",
    "city_ascii": "Newbury",
    "lat": 51.401,
    "lng": -1.323,
    "country": "United Kingdom",
    "iso2": "GB",
    "iso3": "GBR",
    "admin_name": "West Berkshire",
    "capital": "",
    "population": 41075,
    "id": 1826103829
  },
  {
    "city": "Bujanovac",
    "city_ascii": "Bujanovac",
    "lat": 42.4667,
    "lng": 21.7667,
    "country": "Serbia",
    "iso2": "RS",
    "iso3": "SRB",
    "admin_name": "Bujanovac",
    "capital": "admin",
    "population": 41068,
    "id": 1688743477
  },
  {
    "city": "Famagusta",
    "city_ascii": "Famagusta",
    "lat": 35.125,
    "lng": 33.9417,
    "country": "Cyprus",
    "iso2": "CY",
    "iso3": "CYP",
    "admin_name": "Ammóchostos",
    "capital": "admin",
    "population": 40920,
    "id": 1196128852
  },
  {
    "city": "Velika Plana",
    "city_ascii": "Velika Plana",
    "lat": 44.334,
    "lng": 21.0768,
    "country": "Serbia",
    "iso2": "RS",
    "iso3": "SRB",
    "admin_name": "Velika Plana",
    "capital": "admin",
    "population": 40902,
    "id": 1688536735
  },
  {
    "city": "Swords",
    "city_ascii": "Swords",
    "lat": 53.4597,
    "lng": -6.2181,
    "country": "Ireland",
    "iso2": "IE",
    "iso3": "IRL",
    "admin_name": "Fingal",
    "capital": "admin",
    "population": 40776,
    "id": 1372755688
  },
  {
    "city": "Kingswood",
    "city_ascii": "Kingswood",
    "lat": 51.46,
    "lng": -2.505,
    "country": "United Kingdom",
    "iso2": "GB",
    "iso3": "GBR",
    "admin_name": "South Gloucestershire",
    "capital": "",
    "population": 40734,
    "id": 1826616515
  },
  {
    "city": "Dunstable",
    "city_ascii": "Dunstable",
    "lat": 51.886,
    "lng": -0.521,
    "country": "United Kingdom",
    "iso2": "GB",
    "iso3": "GBR",
    "admin_name": "Central Bedfordshire",
    "capital": "",
    "population": 40699,
    "id": 1826601477
  },
  {
    "city": "Veles",
    "city_ascii": "Veles",
    "lat": 41.7153,
    "lng": 21.7753,
    "country": "North Macedonia",
    "iso2": "MK",
    "iso3": "MKD",
    "admin_name": "Veles",
    "capital": "admin",
    "population": 40664,
    "id": 1807468155
  },
  {
    "city": "Artigas",
    "city_ascii": "Artigas",
    "lat": -30.4667,
    "lng": -56.4667,
    "country": "Uruguay",
    "iso2": "UY",
    "iso3": "URY",
    "admin_name": "Artigas",
    "capital": "admin",
    "population": 40658,
    "id": 1858646839
  },
  {
    "city": "Njombe",
    "city_ascii": "Njombe",
    "lat": -9.3333,
    "lng": 34.7667,
    "country": "Tanzania",
    "iso2": "TZ",
    "iso3": "TZA",
    "admin_name": "Njombe",
    "capital": "admin",
    "population": 40607,
    "id": 1834328362
  },
  {
    "city": "Şəmkir",
    "city_ascii": "Samkir",
    "lat": 40.8297,
    "lng": 46.0189,
    "country": "Azerbaijan",
    "iso2": "AZ",
    "iso3": "AZE",
    "admin_name": "Şəmkir",
    "capital": "admin",
    "population": 40600,
    "id": 1031776445
  },
  {
    "city": "Bayburt",
    "city_ascii": "Bayburt",
    "lat": 40.2597,
    "lng": 40.2278,
    "country": "Turkey",
    "iso2": "TR",
    "iso3": "TUR",
    "admin_name": "Bayburt",
    "capital": "admin",
    "population": 40565,
    "id": 1792400872
  },
  {
    "city": "Ölgiy",
    "city_ascii": "Olgiy",
    "lat": 48.9683,
    "lng": 89.9686,
    "country": "Mongolia",
    "iso2": "MN",
    "iso3": "MNG",
    "admin_name": "Bayan-Ölgiy",
    "capital": "admin",
    "population": 40564,
    "id": 1496290857
  },
  {
    "city": "Alexandria",
    "city_ascii": "Alexandria",
    "lat": 43.9686,
    "lng": 25.3333,
    "country": "Romania",
    "iso2": "RO",
    "iso3": "ROU",
    "admin_name": "Teleorman",
    "capital": "admin",
    "population": 40390,
    "id": 1642953190
  },
  {
    "city": "Talas",
    "city_ascii": "Talas",
    "lat": 42.5167,
    "lng": 72.2333,
    "country": "Kyrgyzstan",
    "iso2": "KG",
    "iso3": "KGZ",
    "admin_name": "Talas",
    "capital": "admin",
    "population": 40308,
    "id": 1417698287
  },
  {
    "city": "El Golea",
    "city_ascii": "El Golea",
    "lat": 30.5833,
    "lng": 2.8833,
    "country": "Algeria",
    "iso2": "DZ",
    "iso3": "DZA",
    "admin_name": "El Meniaa",
    "capital": "admin",
    "population": 40195,
    "id": 1012834851
  },
  {
    "city": "Sisak",
    "city_ascii": "Sisak",
    "lat": 45.4872,
    "lng": 16.3761,
    "country": "Croatia",
    "iso2": "HR",
    "iso3": "HRV",
    "admin_name": "Sisačko-Moslavačka Županija",
    "capital": "admin",
    "population": 40121,
    "id": 1191526652
  },
  {
    "city": "Inverness",
    "city_ascii": "Inverness",
    "lat": 57.4778,
    "lng": -4.2247,
    "country": "United Kingdom",
    "iso2": "GB",
    "iso3": "GBR",
    "admin_name": "Highland",
    "capital": "",
    "population": 40011,
    "id": 1826161019
  },
  {
    "city": "Madīnat ‘Īsá",
    "city_ascii": "Madinat `Isa",
    "lat": 26.1736,
    "lng": 50.5478,
    "country": "Bahrain",
    "iso2": "BH",
    "iso3": "BHR",
    "admin_name": "Al Janūbīyah",
    "capital": "",
    "population": 40000,
    "id": 1048219300
  },
  {
    "city": "Fushë Kosovë",
    "city_ascii": "Fushe Kosove",
    "lat": 42.63,
    "lng": 21.12,
    "country": "Kosovo",
    "iso2": "XK",
    "iso3": "XKS",
    "admin_name": "Fushë Kosovë",
    "capital": "admin",
    "population": 39948,
    "id": 1901134407
  },
  {
    "city": "Xaçmaz",
    "city_ascii": "Xacmaz",
    "lat": 41.4708,
    "lng": 48.8097,
    "country": "Azerbaijan",
    "iso2": "AZ",
    "iso3": "AZE",
    "admin_name": "Xaçmaz",
    "capital": "admin",
    "population": 39900,
    "id": 1031335433
  },
  {
    "city": "Brčko",
    "city_ascii": "Brcko",
    "lat": 44.8772,
    "lng": 18.8111,
    "country": "Bosnia and Herzegovina",
    "iso2": "BA",
    "iso3": "BIH",
    "admin_name": "Brcko District",
    "capital": "admin",
    "population": 39893,
    "id": 1070370826
  },
  {
    "city": "Ngozi",
    "city_ascii": "Ngozi",
    "lat": -2.9083,
    "lng": 29.8269,
    "country": "Burundi",
    "iso2": "BI",
    "iso3": "BDI",
    "admin_name": "Ngozi",
    "capital": "admin",
    "population": 39884,
    "id": 1108753930
  },
  {
    "city": "Koumra",
    "city_ascii": "Koumra",
    "lat": 8.91,
    "lng": 17.55,
    "country": "Chad",
    "iso2": "TD",
    "iso3": "TCD",
    "admin_name": "Mandoul",
    "capital": "admin",
    "population": 39852,
    "id": 1148599298
  },
  {
    "city": "Kópavogur",
    "city_ascii": "Kopavogur",
    "lat": 64.1108,
    "lng": -21.9094,
    "country": "Iceland",
    "iso2": "IS",
    "iso3": "ISL",
    "admin_name": "Kópavogur",
    "capital": "",
    "population": 39810,
    "id": 1352411842
  },
  {
    "city": "Massawa",
    "city_ascii": "Massawa",
    "lat": 15.6097,
    "lng": 39.45,
    "country": "Eritrea",
    "iso2": "ER",
    "iso3": "ERI",
    "admin_name": "Semienawi K’eyyĭḥ Baḥri",
    "capital": "admin",
    "population": 39758,
    "id": 1232344222
  },
  {
    "city": "Surin",
    "city_ascii": "Surin",
    "lat": 14.8864,
    "lng": 103.4932,
    "country": "Thailand",
    "iso2": "TH",
    "iso3": "THA",
    "admin_name": "Surin",
    "capital": "admin",
    "population": 39728,
    "id": 1764813179
  },
  {
    "city": "Oshakati",
    "city_ascii": "Oshakati",
    "lat": -17.7833,
    "lng": 15.6995,
    "country": "Namibia",
    "iso2": "NA",
    "iso3": "NAM",
    "admin_name": "Oshana",
    "capital": "admin",
    "population": 39679,
    "id": 1516866759
  },
  {
    "city": "Pärnu",
    "city_ascii": "Parnu",
    "lat": 58.3833,
    "lng": 24.5,
    "country": "Estonia",
    "iso2": "EE",
    "iso3": "EST",
    "admin_name": "Pärnu",
    "capital": "admin",
    "population": 39605,
    "id": 1233955054
  },
  {
    "city": "Şamaxı",
    "city_ascii": "Samaxi",
    "lat": 40.6303,
    "lng": 48.6414,
    "country": "Azerbaijan",
    "iso2": "AZ",
    "iso3": "AZE",
    "admin_name": "Şamaxı",
    "capital": "",
    "population": 39600,
    "id": 1031286384
  },
  {
    "city": "La Troncal",
    "city_ascii": "La Troncal",
    "lat": -2.4,
    "lng": -79.33,
    "country": "Ecuador",
    "iso2": "EC",
    "iso3": "ECU",
    "admin_name": "Cañar",
    "capital": "",
    "population": 39600,
    "id": 1218086252
  },
  {
    "city": "Chachoengsao",
    "city_ascii": "Chachoengsao",
    "lat": 13.6903,
    "lng": 101.0703,
    "country": "Thailand",
    "iso2": "TH",
    "iso3": "THA",
    "admin_name": "Chachoengsao",
    "capital": "admin",
    "population": 39570,
    "id": 1764632382
  },
  {
    "city": "Kaffrine",
    "city_ascii": "Kaffrine",
    "lat": 14.1014,
    "lng": -15.5432,
    "country": "Senegal",
    "iso2": "SN",
    "iso3": "SEN",
    "admin_name": "Kaffrine",
    "capital": "admin",
    "population": 39357,
    "id": 1686807341
  },
  {
    "city": "Istog",
    "city_ascii": "Istog",
    "lat": 42.7833,
    "lng": 20.4833,
    "country": "Kosovo",
    "iso2": "XK",
    "iso3": "XKS",
    "admin_name": "Istog",
    "capital": "admin",
    "population": 39289,
    "id": 1901248770
  },
  {
    "city": "Gornji Milanovac",
    "city_ascii": "Gornji Milanovac",
    "lat": 44.0242,
    "lng": 20.46,
    "country": "Serbia",
    "iso2": "RS",
    "iso3": "SRB",
    "admin_name": "Gornji Milanovac",
    "capital": "admin",
    "population": 38985,
    "id": 1688363978
  },
  {
    "city": "Tromsø",
    "city_ascii": "Tromso",
    "lat": 69.6828,
    "lng": 18.9428,
    "country": "Norway",
    "iso2": "NO",
    "iso3": "NOR",
    "admin_name": "Troms og Finnmark",
    "capital": "admin",
    "population": 38980,
    "id": 1578188822
  },
  {
    "city": "La Chaux-de-Fonds",
    "city_ascii": "La Chaux-de-Fonds",
    "lat": 47.1013,
    "lng": 6.825,
    "country": "Switzerland",
    "iso2": "CH",
    "iso3": "CHE",
    "admin_name": "Neuchâtel",
    "capital": "minor",
    "population": 38965,
    "id": 1756289727
  },
  {
    "city": "Ohrid",
    "city_ascii": "Ohrid",
    "lat": 41.1169,
    "lng": 20.8019,
    "country": "North Macedonia",
    "iso2": "MK",
    "iso3": "MKD",
    "admin_name": "Ohrid",
    "capital": "admin",
    "population": 38818,
    "id": 1807586875
  },
  {
    "city": "Lambaréné",
    "city_ascii": "Lambarene",
    "lat": -0.6883,
    "lng": 10.2319,
    "country": "Gabon",
    "iso2": "GA",
    "iso3": "GAB",
    "admin_name": "Moyen-Ogooué",
    "capital": "admin",
    "population": 38775,
    "id": 1266875472
  },
  {
    "city": "Ilkeston",
    "city_ascii": "Ilkeston",
    "lat": 52.9711,
    "lng": -1.3092,
    "country": "United Kingdom",
    "iso2": "GB",
    "iso3": "GBR",
    "admin_name": "Derbyshire",
    "capital": "",
    "population": 38640,
    "id": 1826289943
  }
]