[
  {
    "city": "Albacete",
    "city_ascii": "Albacete",
    "lat": 38.9956,
    "lng": -1.8558,
    "country": "Spain",
    "iso2": "ES",
    "iso3": "ESP",
    "admin_name": "Castille-La Mancha",
    "capital": "minor",
    "population": 173206,
    "id": 1724000069
  },
  {
    "city": "Podgorica",
    "city_ascii": "Podgorica",
    "lat": 42.4414,
    "lng": 19.2628,
    "country": "Montenegro",
    "iso2": "ME",
    "iso3": "MNE",
    "admin_name": "Podgorica",
    "capital": "primary",
    "population": 173024,
    "id": 1499454516
  },
  {
    "city": "Santander",
    "city_ascii": "Santander",
    "lat": 43.4628,
    "lng": -3.805,
    "country": "Spain",
    "iso2": "ES",
    "iso3": "ESP",
    "admin_name": "Cantabria",
    "capital": "admin",
    "population": 172726,
    "id": 1724247413
  },
  {
    "city": "Mang La",
    "city_ascii": "Mang La",
    "lat": 14.3617,
    "lng": 108.0083,
    "country": "Vietnam",
    "iso2": "VN",
    "iso3": "VNM",
    "admin_name": "Kon Tum",
    "capital": "",
    "population": 172712,
    "id": 1704178922
  },
  {
    "city": "Ongata Rongai",
    "city_ascii": "Ongata Rongai",
    "lat": -1.4,
    "lng": 36.77,
    "country": "Kenya",
    "iso2": "KE",
    "iso3": "KEN",
    "admin_name": "Kajiado",
    "capital": "",
    "population": 172570,
    "id": 1404422353
  },
  {
    "city": "Kindu",
    "city_ascii": "Kindu",
    "lat": -2.95,
    "lng": 25.95,
    "country": "Congo (Kinshasa)",
    "iso2": "CD",
    "iso3": "COD",
    "admin_name": "Maniema",
    "capital": "admin",
    "population": 172321,
    "id": 1180106925
  },
  {
    "city": "Kaolack",
    "city_ascii": "Kaolack",
    "lat": 14.1389,
    "lng": -16.0764,
    "country": "Senegal",
    "iso2": "SN",
    "iso3": "SEN",
    "admin_name": "Kaolack",
    "capital": "admin",
    "population": 172305,
    "id": 1686256343
  },
  {
    "city": "Bir el Djir",
    "city_ascii": "Bir el Djir",
    "lat": 35.7367,
    "lng": -0.5542,
    "country": "Algeria",
    "iso2": "DZ",
    "iso3": "DZA",
    "admin_name": "Oran",
    "capital": "",
    "population": 171883,
    "id": 1012283284
  },
  {
    "city": "Cazanga",
    "city_ascii": "Cazanga",
    "lat": -9.3,
    "lng": 14.95,
    "country": "Angola",
    "iso2": "AO",
    "iso3": "AGO",
    "admin_name": "Cuanza-Norte",
    "capital": "",
    "population": 171743,
    "id": 1024657411
  },
  {
    "city": "Surigao",
    "city_ascii": "Surigao",
    "lat": 9.7897,
    "lng": 125.4958,
    "country": "Philippines",
    "iso2": "PH",
    "iso3": "PHL",
    "admin_name": "Surigao del Norte",
    "capital": "admin",
    "population": 171107,
    "id": 1608611556
  },
  {
    "city": "Makurdi",
    "city_ascii": "Makurdi",
    "lat": 7.7333,
    "lng": 8.5,
    "country": "Nigeria",
    "iso2": "NG",
    "iso3": "NGA",
    "admin_name": "Benue",
    "capital": "admin",
    "population": 170925,
    "id": 1566873994
  },
  {
    "city": "Escuintla",
    "city_ascii": "Escuintla",
    "lat": 14.2978,
    "lng": -90.7869,
    "country": "Guatemala",
    "iso2": "GT",
    "iso3": "GTM",
    "admin_name": "Escuintla",
    "capital": "admin",
    "population": 170280,
    "id": 1320838903
  },
  {
    "city": "Olsztyn",
    "city_ascii": "Olsztyn",
    "lat": 53.7778,
    "lng": 20.4792,
    "country": "Poland",
    "iso2": "PL",
    "iso3": "POL",
    "admin_name": "Warmińsko-Mazurskie",
    "capital": "admin",
    "population": 170225,
    "id": 1616383275
  },
  {
    "city": "Aplahoué",
    "city_ascii": "Aplahoue",
    "lat": 6.9333,
    "lng": 1.6833,
    "country": "Benin",
    "iso2": "BJ",
    "iso3": "BEN",
    "admin_name": "Couffo",
    "capital": "",
    "population": 170069,
    "id": 1204958955
  },
  {
    "city": "As Suwayq",
    "city_ascii": "As Suwayq",
    "lat": 23.8494,
    "lng": 57.4386,
    "country": "Oman",
    "iso2": "OM",
    "iso3": "OMN",
    "admin_name": "Shamāl al Bāţinah",
    "capital": "",
    "population": 170000,
    "id": 1512745539
  },
  {
    "city": "Métouia",
    "city_ascii": "Metouia",
    "lat": 33.9667,
    "lng": 10,
    "country": "Tunisia",
    "iso2": "TN",
    "iso3": "TUN",
    "admin_name": "Gabès",
    "capital": "",
    "population": 170000,
    "id": 1788442482
  },
  {
    "city": "San Luis",
    "city_ascii": "San Luis",
    "lat": -33.3,
    "lng": -66.3333,
    "country": "Argentina",
    "iso2": "AR",
    "iso3": "ARG",
    "admin_name": "San Luis",
    "capital": "admin",
    "population": 169947,
    "id": 1032547434
  },
  {
    "city": "Magwe",
    "city_ascii": "Magwe",
    "lat": 4.1333,
    "lng": 32.3,
    "country": "South Sudan",
    "iso2": "SS",
    "iso3": "SSD",
    "admin_name": "Eastern Equatoria",
    "capital": "",
    "population": 169826,
    "id": 1728085840
  },
  {
    "city": "Puerto Montt",
    "city_ascii": "Puerto Montt",
    "lat": -41.4667,
    "lng": -72.9333,
    "country": "Chile",
    "iso2": "CL",
    "iso3": "CHL",
    "admin_name": "Los Lagos",
    "capital": "admin",
    "population": 169736,
    "id": 1152443957
  },
  {
    "city": "Al Marj",
    "city_ascii": "Al Marj",
    "lat": 32.5005,
    "lng": 20.83,
    "country": "Libya",
    "iso2": "LY",
    "iso3": "LBY",
    "admin_name": "Al Marj",
    "capital": "admin",
    "population": 169540,
    "id": 1434742923
  },
  {
    "city": "Batumi",
    "city_ascii": "Batumi",
    "lat": 41.6458,
    "lng": 41.6417,
    "country": "Georgia",
    "iso2": "GE",
    "iso3": "GEO",
    "admin_name": "Ajaria",
    "capital": "admin",
    "population": 169095,
    "id": 1268193611
  },
  {
    "city": "Calabozo",
    "city_ascii": "Calabozo",
    "lat": 8.9333,
    "lng": -67.4333,
    "country": "Venezuela",
    "iso2": "VE",
    "iso3": "VEN",
    "admin_name": "Guárico",
    "capital": "minor",
    "population": 168605,
    "id": 1862623441
  },
  {
    "city": "Bordj Bou Arreridj",
    "city_ascii": "Bordj Bou Arreridj",
    "lat": 36.0667,
    "lng": 4.7667,
    "country": "Algeria",
    "iso2": "DZ",
    "iso3": "DZA",
    "admin_name": "Bordj Bou Arréridj",
    "capital": "admin",
    "population": 168346,
    "id": 1012016677
  },
  {
    "city": "Karaman",
    "city_ascii": "Karaman",
    "lat": 37.1819,
    "lng": 33.2181,
    "country": "Turkey",
    "iso2": "TR",
    "iso3": "TUR",
    "admin_name": "Karaman",
    "capital": "admin",
    "population": 168299,
    "id": 1792285496
  },
  {
    "city": "Ilford",
    "city_ascii": "Ilford",
    "lat": 51.5575,
    "lng": 0.0858,
    "country": "United Kingdom",
    "iso2": "GB",
    "iso3": "GBR",
    "admin_name": "Redbridge",
    "capital": "",
    "population": 168168,
    "id": 1826381000
  },
  {
    "city": "Malanville",
    "city_ascii": "Malanville",
    "lat": 11.8667,
    "lng": 3.3833,
    "country": "Benin",
    "iso2": "BJ",
    "iso3": "BEN",
    "admin_name": "Atacora",
    "capital": "",
    "population": 168006,
    "id": 1204159179
  },
  {
    "city": "Phan Rang-Tháp Chàm",
    "city_ascii": "Phan Rang-Thap Cham",
    "lat": 11.5667,
    "lng": 108.9833,
    "country": "Vietnam",
    "iso2": "VN",
    "iso3": "VNM",
    "admin_name": "Ninh Thuận",
    "capital": "admin",
    "population": 167394,
    "id": 1704094609
  },
  {
    "city": "Jutiapa",
    "city_ascii": "Jutiapa",
    "lat": 14.2828,
    "lng": -89.8925,
    "country": "Guatemala",
    "iso2": "GT",
    "iso3": "GTM",
    "admin_name": "Jutiapa",
    "capital": "admin",
    "population": 167049,
    "id": 1320264119
  },
  {
    "city": "Uppsala",
    "city_ascii": "Uppsala",
    "lat": 59.8581,
    "lng": 17.6447,
    "country": "Sweden",
    "iso2": "SE",
    "iso3": "SWE",
    "admin_name": "Uppsala",
    "capital": "admin",
    "population": 166698,
    "id": 1752953686
  },
  {
    "city": "Siirt",
    "city_ascii": "Siirt",
    "lat": 37.925,
    "lng": 41.9458,
    "country": "Turkey",
    "iso2": "TR",
    "iso3": "TUR",
    "admin_name": "Siirt",
    "capital": "admin",
    "population": 166332,
    "id": 1792190820
  },
  {
    "city": "Le Havre",
    "city_ascii": "Le Havre",
    "lat": 49.49,
    "lng": 0.1,
    "country": "France",
    "iso2": "FR",
    "iso3": "FRA",
    "admin_name": "Normandie",
    "capital": "minor",
    "population": 166058,
    "id": 1250775297
  },
  {
    "city": "Ratnapura",
    "city_ascii": "Ratnapura",
    "lat": 6.6806,
    "lng": 80.4022,
    "country": "Sri Lanka",
    "iso2": "LK",
    "iso3": "LKA",
    "admin_name": "Sabaragamuwa",
    "capital": "admin",
    "population": 165998,
    "id": 1144739208
  },
  {
    "city": "Béchar",
    "city_ascii": "Bechar",
    "lat": 31.6167,
    "lng": -2.2167,
    "country": "Algeria",
    "iso2": "DZ",
    "iso3": "DZA",
    "admin_name": "Béchar",
    "capital": "admin",
    "population": 165627,
    "id": 1012371820
  },
  {
    "city": "Singida",
    "city_ascii": "Singida",
    "lat": -4.8167,
    "lng": 34.75,
    "country": "Tanzania",
    "iso2": "TZ",
    "iso3": "TZA",
    "admin_name": "Singida",
    "capital": "admin",
    "population": 165492,
    "id": 1834418526
  },
  {
    "city": "Warrington",
    "city_ascii": "Warrington",
    "lat": 53.39,
    "lng": -2.59,
    "country": "United Kingdom",
    "iso2": "GB",
    "iso3": "GBR",
    "admin_name": "Warrington",
    "capital": "",
    "population": 165456,
    "id": 1826261547
  },
  {
    "city": "Kökshetaū",
    "city_ascii": "Kokshetau",
    "lat": 53.2833,
    "lng": 69.3833,
    "country": "Kazakhstan",
    "iso2": "KZ",
    "iso3": "KAZ",
    "admin_name": "Aqmola",
    "capital": "admin",
    "population": 165153,
    "id": 1398375387
  },
  {
    "city": "Idlib",
    "city_ascii": "Idlib",
    "lat": 35.9333,
    "lng": 36.6333,
    "country": "Syria",
    "iso2": "SY",
    "iso3": "SYR",
    "admin_name": "Idlib",
    "capital": "admin",
    "population": 165000,
    "id": 1760305230
  },
  {
    "city": "Cienfuegos",
    "city_ascii": "Cienfuegos",
    "lat": 22.1456,
    "lng": -80.4364,
    "country": "Cuba",
    "iso2": "CU",
    "iso3": "CUB",
    "admin_name": "Cienfuegos",
    "capital": "admin",
    "population": 164924,
    "id": 1192020054
  },
  {
    "city": "Petropavlovsk-Kamchatskiy",
    "city_ascii": "Petropavlovsk-Kamchatskiy",
    "lat": 53.0167,
    "lng": 158.65,
    "country": "Russia",
    "iso2": "RU",
    "iso3": "RUS",
    "admin_name": "Kamchatskiy Kray",
    "capital": "admin",
    "population": 164900,
    "id": 1643129247
  },
  {
    "city": "Abengourou",
    "city_ascii": "Abengourou",
    "lat": 6.7333,
    "lng": -3.4833,
    "country": "Côte d’Ivoire",
    "iso2": "CI",
    "iso3": "CIV",
    "admin_name": "Comoé",
    "capital": "admin",
    "population": 164424,
    "id": 1384295898
  },
  {
    "city": "Chillán",
    "city_ascii": "Chillan",
    "lat": -36.6,
    "lng": -72.1167,
    "country": "Chile",
    "iso2": "CL",
    "iso3": "CHL",
    "admin_name": "Ñuble",
    "capital": "admin",
    "population": 164270,
    "id": 1152082093
  },
  {
    "city": "Abū Ḩulayfah",
    "city_ascii": "Abu Hulayfah",
    "lat": 29.1322,
    "lng": 48.1261,
    "country": "Kuwait",
    "iso2": "KW",
    "iso3": "KWT",
    "admin_name": "Al Aḩmadī",
    "capital": "",
    "population": 164212,
    "id": 1414456826
  },
  {
    "city": "Tunja",
    "city_ascii": "Tunja",
    "lat": 5.5333,
    "lng": -73.3667,
    "country": "Colombia",
    "iso2": "CO",
    "iso3": "COL",
    "admin_name": "Boyacá",
    "capital": "admin",
    "population": 163894,
    "id": 1170843027
  },
  {
    "city": "San Marcos",
    "city_ascii": "San Marcos",
    "lat": 10.6204,
    "lng": -84.512,
    "country": "Costa Rica",
    "iso2": "CR",
    "iso3": "CRI",
    "admin_name": "Alajuela",
    "capital": "",
    "population": 163745,
    "id": 1188000770
  },
  {
    "city": "Blida",
    "city_ascii": "Blida",
    "lat": 36.4686,
    "lng": 2.8319,
    "country": "Algeria",
    "iso2": "DZ",
    "iso3": "DZA",
    "admin_name": "Blida",
    "capital": "admin",
    "population": 163586,
    "id": 1012045589
  },
  {
    "city": "Sidon",
    "city_ascii": "Sidon",
    "lat": 33.5606,
    "lng": 35.3758,
    "country": "Lebanon",
    "iso2": "LB",
    "iso3": "LBN",
    "admin_name": "Liban-Sud",
    "capital": "admin",
    "population": 163554,
    "id": 1422897920
  },
  {
    "city": "Wau",
    "city_ascii": "Wau",
    "lat": 7.7,
    "lng": 28,
    "country": "South Sudan",
    "iso2": "SS",
    "iso3": "SSD",
    "admin_name": "Western Bahr el Ghazal",
    "capital": "admin",
    "population": 163442,
    "id": 1728877501
  },
  {
    "city": "Tokat",
    "city_ascii": "Tokat",
    "lat": 40.3139,
    "lng": 36.5542,
    "country": "Turkey",
    "iso2": "TR",
    "iso3": "TUR",
    "admin_name": "Tokat",
    "capital": "admin",
    "population": 163405,
    "id": 1792534905
  },
  {
    "city": "Garissa",
    "city_ascii": "Garissa",
    "lat": -0.4569,
    "lng": 39.6583,
    "country": "Kenya",
    "iso2": "KE",
    "iso3": "KEN",
    "admin_name": "Garissa",
    "capital": "admin",
    "population": 163399,
    "id": 1404464692
  },
  {
    "city": "Skikda",
    "city_ascii": "Skikda",
    "lat": 36.8667,
    "lng": 6.9,
    "country": "Algeria",
    "iso2": "DZ",
    "iso3": "DZA",
    "admin_name": "Skikda",
    "capital": "admin",
    "population": 163318,
    "id": 1012619903
  }
]