[
  {
    "city": "Cabadbaran",
    "city_ascii": "Cabadbaran",
    "lat": 9.12,
    "lng": 125.53,
    "country": "Philippines",
    "iso2": "PH",
    "iso3": "PHL",
    "admin_name": "Agusan del Norte",
    "capital": "admin",
    "population": 80354,
    "id": 1608889253
  },
  {
    "city": "Nabatîyé",
    "city_ascii": "Nabatiye",
    "lat": 33.3833,
    "lng": 35.45,
    "country": "Lebanon",
    "iso2": "LB",
    "iso3": "LBN",
    "admin_name": "Nabatîyé",
    "capital": "admin",
    "population": 80000,
    "id": 1422269278
  },
  {
    "city": "Andahuaylas",
    "city_ascii": "Andahuaylas",
    "lat": -13.6575,
    "lng": -73.3833,
    "country": "Peru",
    "iso2": "PE",
    "iso3": "PER",
    "admin_name": "Apurímac",
    "capital": "",
    "population": 80000,
    "id": 1604615351
  },
  {
    "city": "Scunthorpe",
    "city_ascii": "Scunthorpe",
    "lat": 53.5809,
    "lng": -0.6502,
    "country": "United Kingdom",
    "iso2": "GB",
    "iso3": "GBR",
    "admin_name": "North Lincolnshire",
    "capital": "",
    "population": 79977,
    "id": 1826817883
  },
  {
    "city": "Drobeta-Turnu Severin",
    "city_ascii": "Drobeta-Turnu Severin",
    "lat": 44.6333,
    "lng": 22.65,
    "country": "Romania",
    "iso2": "RO",
    "iso3": "ROU",
    "admin_name": "Mehedinţi",
    "capital": "admin",
    "population": 79865,
    "id": 1642729144
  },
  {
    "city": "Piatra Neamţ",
    "city_ascii": "Piatra Neamt",
    "lat": 46.9275,
    "lng": 26.3708,
    "country": "Romania",
    "iso2": "RO",
    "iso3": "ROU",
    "admin_name": "Neamţ",
    "capital": "admin",
    "population": 79679,
    "id": 1642444635
  },
  {
    "city": "Mahdia",
    "city_ascii": "Mahdia",
    "lat": 35.5,
    "lng": 11.0667,
    "country": "Tunisia",
    "iso2": "TN",
    "iso3": "TUN",
    "admin_name": "Mahdia",
    "capital": "admin",
    "population": 79545,
    "id": 1788440786
  },
  {
    "city": "Xai",
    "city_ascii": "Xai",
    "lat": 20.6914,
    "lng": 101.9861,
    "country": "Laos",
    "iso2": "LA",
    "iso3": "LAO",
    "admin_name": "Oudômxai",
    "capital": "admin",
    "population": 79500,
    "id": 1418805827
  },
  {
    "city": "Dudley",
    "city_ascii": "Dudley",
    "lat": 52.508,
    "lng": -2.089,
    "country": "United Kingdom",
    "iso2": "GB",
    "iso3": "GBR",
    "admin_name": "Dudley",
    "capital": "",
    "population": 79379,
    "id": 1826052828
  },
  {
    "city": "Ban Talat Rangsit",
    "city_ascii": "Ban Talat Rangsit",
    "lat": 13.9833,
    "lng": 100.6167,
    "country": "Thailand",
    "iso2": "TH",
    "iso3": "THA",
    "admin_name": "Pathum Thani",
    "capital": "",
    "population": 79319,
    "id": 1764039814
  },
  {
    "city": "Ubon Ratchathani",
    "city_ascii": "Ubon Ratchathani",
    "lat": 15.2281,
    "lng": 104.8594,
    "country": "Thailand",
    "iso2": "TH",
    "iso3": "THA",
    "admin_name": "Ubon Ratchathani",
    "capital": "admin",
    "population": 79023,
    "id": 1764611048
  },
  {
    "city": "Bistriţa",
    "city_ascii": "Bistrita",
    "lat": 47.1333,
    "lng": 24.5,
    "country": "Romania",
    "iso2": "RO",
    "iso3": "ROU",
    "admin_name": "Bistriţa-Năsăud",
    "capital": "admin",
    "population": 78877,
    "id": 1642633889
  },
  {
    "city": "Daugavpils",
    "city_ascii": "Daugavpils",
    "lat": 55.875,
    "lng": 26.5356,
    "country": "Latvia",
    "iso2": "LV",
    "iso3": "LVA",
    "admin_name": "Augšdaugava",
    "capital": "admin",
    "population": 78850,
    "id": 1428924928
  },
  {
    "city": "Tambacounda",
    "city_ascii": "Tambacounda",
    "lat": 13.7689,
    "lng": -13.6672,
    "country": "Senegal",
    "iso2": "SN",
    "iso3": "SEN",
    "admin_name": "Tambacounda",
    "capital": "admin",
    "population": 78800,
    "id": 1686195160
  },
  {
    "city": "Nakhon Pathom",
    "city_ascii": "Nakhon Pathom",
    "lat": 13.8206,
    "lng": 100.0625,
    "country": "Thailand",
    "iso2": "TH",
    "iso3": "THA",
    "admin_name": "Nakhon Pathom",
    "capital": "admin",
    "population": 78780,
    "id": 1764251992
  },
  {
    "city": "Bury",
    "city_ascii": "Bury",
    "lat": 53.593,
    "lng": -2.298,
    "country": "United Kingdom",
    "iso2": "GB",
    "iso3": "GBR",
    "admin_name": "Bury",
    "capital": "",
    "population": 78729,
    "id": 1826242195
  },
  {
    "city": "Elbasan",
    "city_ascii": "Elbasan",
    "lat": 41.1111,
    "lng": 20.0806,
    "country": "Albania",
    "iso2": "AL",
    "iso3": "ALB",
    "admin_name": "Elbasan",
    "capital": "admin",
    "population": 78703,
    "id": 1008409270
  },
  {
    "city": "Curepipe",
    "city_ascii": "Curepipe",
    "lat": -20.3188,
    "lng": 57.5263,
    "country": "Mauritius",
    "iso2": "MU",
    "iso3": "MUS",
    "admin_name": "Plaines Wilhems",
    "capital": "",
    "population": 78618,
    "id": 1480343099
  },
  {
    "city": "Brixton",
    "city_ascii": "Brixton",
    "lat": 51.4575,
    "lng": -0.1175,
    "country": "United Kingdom",
    "iso2": "GB",
    "iso3": "GBR",
    "admin_name": "Lambeth",
    "capital": "",
    "population": 78536,
    "id": 1826058068
  },
  {
    "city": "Aveiro",
    "city_ascii": "Aveiro",
    "lat": 40.6333,
    "lng": -8.65,
    "country": "Portugal",
    "iso2": "PT",
    "iso3": "PRT",
    "admin_name": "Aveiro",
    "capital": "admin",
    "population": 78450,
    "id": 1620555869
  },
  {
    "city": "Cheyenne",
    "city_ascii": "Cheyenne",
    "lat": 41.135,
    "lng": -104.7902,
    "country": "United States",
    "iso2": "US",
    "iso3": "USA",
    "admin_name": "Wyoming",
    "capital": "admin",
    "population": 78204,
    "id": 1840018713
  },
  {
    "city": "Kuacjok",
    "city_ascii": "Kuacjok",
    "lat": 8.31,
    "lng": 27.99,
    "country": "South Sudan",
    "iso2": "SS",
    "iso3": "SSD",
    "admin_name": "Warrap",
    "capital": "admin",
    "population": 78111,
    "id": 1728713745
  },
  {
    "city": "Faranah",
    "city_ascii": "Faranah",
    "lat": 10.0333,
    "lng": -10.7333,
    "country": "Guinea",
    "iso2": "GN",
    "iso3": "GIN",
    "admin_name": "Faranah",
    "capital": "admin",
    "population": 78108,
    "id": 1324603099
  },
  {
    "city": "Godāwari̇̄",
    "city_ascii": "Godawari",
    "lat": 28.91,
    "lng": 80.59,
    "country": "Nepal",
    "iso2": "NP",
    "iso3": "NPL",
    "admin_name": "Sudūrpashchim",
    "capital": "admin",
    "population": 78018,
    "id": 1524020578
  },
  {
    "city": "Colón",
    "city_ascii": "Colon",
    "lat": 9.3572,
    "lng": -79.8986,
    "country": "Panama",
    "iso2": "PA",
    "iso3": "PAN",
    "admin_name": "Colón",
    "capital": "admin",
    "population": 78000,
    "id": 1591599922
  },
  {
    "city": "Pakxé",
    "city_ascii": "Pakxe",
    "lat": 15.1167,
    "lng": 105.7833,
    "country": "Laos",
    "iso2": "LA",
    "iso3": "LAO",
    "admin_name": "Champasak",
    "capital": "admin",
    "population": 77900,
    "id": 1418863956
  },
  {
    "city": "Brikama",
    "city_ascii": "Brikama",
    "lat": 13.2667,
    "lng": -16.65,
    "country": "Gambia, The",
    "iso2": "GM",
    "iso3": "GMB",
    "admin_name": "West Coast",
    "capital": "admin",
    "population": 77700,
    "id": 1270953861
  },
  {
    "city": "Nitra",
    "city_ascii": "Nitra",
    "lat": 48.3069,
    "lng": 18.0864,
    "country": "Slovakia",
    "iso2": "SK",
    "iso3": "SVK",
    "admin_name": "Nitra",
    "capital": "admin",
    "population": 77610,
    "id": 1703890031
  },
  {
    "city": "Phuket",
    "city_ascii": "Phuket",
    "lat": 7.8881,
    "lng": 98.3975,
    "country": "Thailand",
    "iso2": "TH",
    "iso3": "THA",
    "admin_name": "Phuket",
    "capital": "admin",
    "population": 77610,
    "id": 1764327831
  },
  {
    "city": "Lipjan",
    "city_ascii": "Lipjan",
    "lat": 42.53,
    "lng": 21.1386,
    "country": "Kosovo",
    "iso2": "XK",
    "iso3": "XKS",
    "admin_name": "Lipjan",
    "capital": "admin",
    "population": 77605,
    "id": 1901682048
  },
  {
    "city": "Latacunga",
    "city_ascii": "Latacunga",
    "lat": -0.9319,
    "lng": -78.6161,
    "country": "Ecuador",
    "iso2": "EC",
    "iso3": "ECU",
    "admin_name": "Cotopaxi",
    "capital": "admin",
    "population": 77267,
    "id": 1218947988
  },
  {
    "city": "Bracknell",
    "city_ascii": "Bracknell",
    "lat": 51.416,
    "lng": -0.749,
    "country": "United Kingdom",
    "iso2": "GB",
    "iso3": "GBR",
    "admin_name": "Bracknell Forest",
    "capital": "",
    "population": 77256,
    "id": 1826880896
  },
  {
    "city": "Paisley",
    "city_ascii": "Paisley",
    "lat": 55.8456,
    "lng": -4.4239,
    "country": "United Kingdom",
    "iso2": "GB",
    "iso3": "GBR",
    "admin_name": "Renfrewshire",
    "capital": "",
    "population": 77220,
    "id": 1826549531
  },
  {
    "city": "Guildford",
    "city_ascii": "Guildford",
    "lat": 51.2365,
    "lng": -0.5703,
    "country": "United Kingdom",
    "iso2": "GB",
    "iso3": "GBR",
    "admin_name": "Surrey",
    "capital": "",
    "population": 77057,
    "id": 1826863533
  },
  {
    "city": "Berbérati",
    "city_ascii": "Berberati",
    "lat": 4.2614,
    "lng": 15.7894,
    "country": "Central African Republic",
    "iso2": "CF",
    "iso3": "CAF",
    "admin_name": "Mambéré-Kadéï",
    "capital": "admin",
    "population": 76918,
    "id": 1140239733
  },
  {
    "city": "Mao",
    "city_ascii": "Mao",
    "lat": 19.5667,
    "lng": -71.0833,
    "country": "Dominican Republic",
    "iso2": "DO",
    "iso3": "DOM",
    "admin_name": "Cibao Noroeste",
    "capital": "admin",
    "population": 76863,
    "id": 1214217168
  },
  {
    "city": "Veliko Tarnovo",
    "city_ascii": "Veliko Tarnovo",
    "lat": 43.0778,
    "lng": 25.6167,
    "country": "Bulgaria",
    "iso2": "BG",
    "iso3": "BGR",
    "admin_name": "Veliko Tarnovo",
    "capital": "admin",
    "population": 76834,
    "id": 1100134696
  },
  {
    "city": "Surt",
    "city_ascii": "Surt",
    "lat": 31.205,
    "lng": 16.5886,
    "country": "Libya",
    "iso2": "LY",
    "iso3": "LBY",
    "admin_name": "Surt",
    "capital": "admin",
    "population": 76788,
    "id": 1434563640
  },
  {
    "city": "Virac",
    "city_ascii": "Virac",
    "lat": 13.58,
    "lng": 124.23,
    "country": "Philippines",
    "iso2": "PH",
    "iso3": "PHL",
    "admin_name": "Catanduanes",
    "capital": "admin",
    "population": 76520,
    "id": 1608265120
  },
  {
    "city": "Abéché",
    "city_ascii": "Abeche",
    "lat": 13.8331,
    "lng": 20.8347,
    "country": "Chad",
    "iso2": "TD",
    "iso3": "TCD",
    "admin_name": "Ouaddaï",
    "capital": "admin",
    "population": 76492,
    "id": 1148461151
  },
  {
    "city": "Khemis el Khechna",
    "city_ascii": "Khemis el Khechna",
    "lat": 36.65,
    "lng": 3.3306,
    "country": "Algeria",
    "iso2": "DZ",
    "iso3": "DZA",
    "admin_name": "Boumerdes",
    "capital": "",
    "population": 76474,
    "id": 1012679229
  },
  {
    "city": "Paysandú",
    "city_ascii": "Paysandu",
    "lat": -32.3214,
    "lng": -58.0756,
    "country": "Uruguay",
    "iso2": "UY",
    "iso3": "URY",
    "admin_name": "Paysandú",
    "capital": "admin",
    "population": 76429,
    "id": 1858756515
  },
  {
    "city": "Palmerston North",
    "city_ascii": "Palmerston North",
    "lat": -40.355,
    "lng": 175.6117,
    "country": "New Zealand",
    "iso2": "NZ",
    "iso3": "NZL",
    "admin_name": "Manawatu-Wanganui",
    "capital": "admin",
    "population": 76236,
    "id": 1554138183
  },
  {
    "city": "East Ham",
    "city_ascii": "East Ham",
    "lat": 51.5323,
    "lng": 0.0554,
    "country": "United Kingdom",
    "iso2": "GB",
    "iso3": "GBR",
    "admin_name": "Newham",
    "capital": "",
    "population": 76186,
    "id": 1826587417
  },
  {
    "city": "Bender",
    "city_ascii": "Bender",
    "lat": 46.8333,
    "lng": 29.4833,
    "country": "Moldova",
    "iso2": "MD",
    "iso3": "MDA",
    "admin_name": "Bender",
    "capital": "admin",
    "population": 76158,
    "id": 1498257678
  },
  {
    "city": "Weston-super-Mare",
    "city_ascii": "Weston-super-Mare",
    "lat": 51.346,
    "lng": -2.977,
    "country": "United Kingdom",
    "iso2": "GB",
    "iso3": "GBR",
    "admin_name": "North Somerset",
    "capital": "",
    "population": 76143,
    "id": 1826189795
  },
  {
    "city": "Banská Bystrica",
    "city_ascii": "Banska Bystrica",
    "lat": 48.7353,
    "lng": 19.1453,
    "country": "Slovakia",
    "iso2": "SK",
    "iso3": "SVK",
    "admin_name": "Banská Bystrica",
    "capital": "admin",
    "population": 76018,
    "id": 1703015198
  },
  {
    "city": "Sankt Gallen",
    "city_ascii": "Sankt Gallen",
    "lat": 47.4242,
    "lng": 9.3708,
    "country": "Switzerland",
    "iso2": "CH",
    "iso3": "CHE",
    "admin_name": "Sankt Gallen",
    "capital": "admin",
    "population": 75833,
    "id": 1756343098
  },
  {
    "city": "Xaignabouli",
    "city_ascii": "Xaignabouli",
    "lat": 19.25,
    "lng": 101.75,
    "country": "Laos",
    "iso2": "LA",
    "iso3": "LAO",
    "admin_name": "Xaignabouli",
    "capital": "admin",
    "population": 75700,
    "id": 1418760593
  },
  {
    "city": "Arta",
    "city_ascii": "Arta",
    "lat": 11.5236,
    "lng": 42.8472,
    "country": "Djibouti",
    "iso2": "DJ",
    "iso3": "DJI",
    "admin_name": "Arta",
    "capital": "admin",
    "population": 75654,
    "id": 1262889858
  }
]