[
  {
    "city": "Chiang Mai",
    "city_ascii": "Chiang Mai",
    "lat": 18.7953,
    "lng": 98.9986,
    "country": "Thailand",
    "iso2": "TH",
    "iso3": "THA",
    "admin_name": "Chiang Mai",
    "capital": "admin",
    "population": 1198000,
    "id": 1764662886
  },
  {
    "city": "Belgrade",
    "city_ascii": "Belgrade",
    "lat": 44.82,
    "lng": 20.46,
    "country": "Serbia",
    "iso2": "RS",
    "iso3": "SRB",
    "admin_name": "Beograd",
    "capital": "primary",
    "population": 1197714,
    "id": 1688374696
  },
  {
    "city": "Maiduguri",
    "city_ascii": "Maiduguri",
    "lat": 11.8333,
    "lng": 13.15,
    "country": "Nigeria",
    "iso2": "NG",
    "iso3": "NGA",
    "admin_name": "Borno",
    "capital": "admin",
    "population": 1197497,
    "id": 1566540296
  },
  {
    "city": "Chelyabinsk",
    "city_ascii": "Chelyabinsk",
    "lat": 55.1547,
    "lng": 61.3758,
    "country": "Russia",
    "iso2": "RU",
    "iso3": "RUS",
    "admin_name": "Chelyabinskaya Oblast’",
    "capital": "admin",
    "population": 1196680,
    "id": 1643224011
  },
  {
    "city": "Mbandaka",
    "city_ascii": "Mbandaka",
    "lat": 0.0478,
    "lng": 18.2558,
    "country": "Congo (Kinshasa)",
    "iso2": "CD",
    "iso3": "COD",
    "admin_name": "Équateur",
    "capital": "admin",
    "population": 1187837,
    "id": 1180720887
  },
  {
    "city": "Doha",
    "city_ascii": "Doha",
    "lat": 25.2867,
    "lng": 51.5333,
    "country": "Qatar",
    "iso2": "QA",
    "iso3": "QAT",
    "admin_name": "Ad Dawḩah",
    "capital": "primary",
    "population": 1186023,
    "id": 1634459660
  },
  {
    "city": "Ahvāz",
    "city_ascii": "Ahvaz",
    "lat": 31.3047,
    "lng": 48.6783,
    "country": "Iran",
    "iso2": "IR",
    "iso3": "IRN",
    "admin_name": "Khūzestān",
    "capital": "admin",
    "population": 1184788,
    "id": 1364350188
  },
  {
    "city": "Shymkent",
    "city_ascii": "Shymkent",
    "lat": 42.3167,
    "lng": 69.5958,
    "country": "Kazakhstan",
    "iso2": "KZ",
    "iso3": "KAZ",
    "admin_name": "Shymkent",
    "capital": "admin",
    "population": 1184113,
    "id": 1398791401
  },
  {
    "city": "Tripoli",
    "city_ascii": "Tripoli",
    "lat": 32.8872,
    "lng": 13.1914,
    "country": "Libya",
    "iso2": "LY",
    "iso3": "LBY",
    "admin_name": "Ţarābulus",
    "capital": "primary",
    "population": 1183000,
    "id": 1434201852
  },
  {
    "city": "Srīnagar",
    "city_ascii": "Srinagar",
    "lat": 34.09,
    "lng": 74.79,
    "country": "India",
    "iso2": "IN",
    "iso3": "IND",
    "admin_name": "Jammu and Kashmīr",
    "capital": "admin",
    "population": 1180570,
    "id": 1356442950
  },
  {
    "city": "Nashville",
    "city_ascii": "Nashville",
    "lat": 36.1715,
    "lng": -86.7842,
    "country": "United States",
    "iso2": "US",
    "iso3": "USA",
    "admin_name": "Tennessee",
    "capital": "admin",
    "population": 1177657,
    "id": 1840036155
  },
  {
    "city": "Salt Lake City",
    "city_ascii": "Salt Lake City",
    "lat": 40.7776,
    "lng": -111.9311,
    "country": "United States",
    "iso2": "US",
    "iso3": "USA",
    "admin_name": "Utah",
    "capital": "admin",
    "population": 1173879,
    "id": 1840021383
  },
  {
    "city": "Omsk",
    "city_ascii": "Omsk",
    "lat": 54.9833,
    "lng": 73.3667,
    "country": "Russia",
    "iso2": "RU",
    "iso3": "RUS",
    "admin_name": "Omskaya Oblast’",
    "capital": "admin",
    "population": 1172070,
    "id": 1643360863
  },
  {
    "city": "Samara",
    "city_ascii": "Samara",
    "lat": 53.2028,
    "lng": 50.1408,
    "country": "Russia",
    "iso2": "RU",
    "iso3": "RUS",
    "admin_name": "Samarskaya Oblast’",
    "capital": "admin",
    "population": 1169719,
    "id": 1643205757
  },
  {
    "city": "Bandar Lampung",
    "city_ascii": "Bandar Lampung",
    "lat": -5.45,
    "lng": 105.2667,
    "country": "Indonesia",
    "iso2": "ID",
    "iso3": "IDN",
    "admin_name": "Lampung",
    "capital": "admin",
    "population": 1166761,
    "id": 1360243491
  },
  {
    "city": "Nay Pyi Taw",
    "city_ascii": "Nay Pyi Taw",
    "lat": 19.7475,
    "lng": 96.115,
    "country": "Burma",
    "iso2": "MM",
    "iso3": "MMR",
    "admin_name": "Nay Pyi Taw",
    "capital": "primary",
    "population": 1160242,
    "id": 1104838105
  },
  {
    "city": "Aba",
    "city_ascii": "Aba",
    "lat": 5.1167,
    "lng": 7.3667,
    "country": "Nigeria",
    "iso2": "NG",
    "iso3": "NGA",
    "admin_name": "Abia",
    "capital": "minor",
    "population": 1160000,
    "id": 1566262000
  },
  {
    "city": "Ulsan",
    "city_ascii": "Ulsan",
    "lat": 35.55,
    "lng": 129.3167,
    "country": "Korea, South",
    "iso2": "KR",
    "iso3": "KOR",
    "admin_name": "Ulsan",
    "capital": "admin",
    "population": 1150116,
    "id": 1410134602
  },
  {
    "city": "Benin City",
    "city_ascii": "Benin City",
    "lat": 6.3333,
    "lng": 5.6222,
    "country": "Nigeria",
    "iso2": "NG",
    "iso3": "NGA",
    "admin_name": "Edo",
    "capital": "admin",
    "population": 1147188,
    "id": 1566080151
  },
  {
    "city": "Bujumbura",
    "city_ascii": "Bujumbura",
    "lat": -3.3833,
    "lng": 29.3667,
    "country": "Burundi",
    "iso2": "BI",
    "iso3": "BDI",
    "admin_name": "Bujumbura Mairie",
    "capital": "primary",
    "population": 1143202,
    "id": 1108101689
  },
  {
    "city": "Rostov",
    "city_ascii": "Rostov",
    "lat": 47.2225,
    "lng": 39.71,
    "country": "Russia",
    "iso2": "RU",
    "iso3": "RUS",
    "admin_name": "Rostovskaya Oblast’",
    "capital": "admin",
    "population": 1137704,
    "id": 1643013518
  },
  {
    "city": "Maputo",
    "city_ascii": "Maputo",
    "lat": -25.9667,
    "lng": 32.5833,
    "country": "Mozambique",
    "iso2": "MZ",
    "iso3": "MOZ",
    "admin_name": "Maputo",
    "capital": "primary",
    "population": 1133200,
    "id": 1508074843
  },
  {
    "city": "Bukavu",
    "city_ascii": "Bukavu",
    "lat": -2.5,
    "lng": 28.8667,
    "country": "Congo (Kinshasa)",
    "iso2": "CD",
    "iso3": "COD",
    "admin_name": "Sud-Kivu",
    "capital": "admin",
    "population": 1133000,
    "id": 1180475821
  },
  {
    "city": "Shagamu",
    "city_ascii": "Shagamu",
    "lat": 6.8333,
    "lng": 3.65,
    "country": "Nigeria",
    "iso2": "NG",
    "iso3": "NGA",
    "admin_name": "Ogun",
    "capital": "minor",
    "population": 1132270,
    "id": 1566202131
  },
  {
    "city": "Santo Domingo",
    "city_ascii": "Santo Domingo",
    "lat": 18.4667,
    "lng": -69.95,
    "country": "Dominican Republic",
    "iso2": "DO",
    "iso3": "DOM",
    "admin_name": "Ozama",
    "capital": "primary",
    "population": 1128678,
    "id": 1214636202
  },
  {
    "city": "Bishkek",
    "city_ascii": "Bishkek",
    "lat": 42.8747,
    "lng": 74.6122,
    "country": "Kyrgyzstan",
    "iso2": "KG",
    "iso3": "KGZ",
    "admin_name": "Bishkek",
    "capital": "primary",
    "population": 1120827,
    "id": 1417191971
  },
  {
    "city": "Tbilisi",
    "city_ascii": "Tbilisi",
    "lat": 41.7225,
    "lng": 44.7925,
    "country": "Georgia",
    "iso2": "GE",
    "iso3": "GEO",
    "admin_name": "Tbilisi",
    "capital": "primary",
    "population": 1118035,
    "id": 1268203191
  },
  {
    "city": "Guwāhāti",
    "city_ascii": "Guwahati",
    "lat": 26.1722,
    "lng": 91.7458,
    "country": "India",
    "iso2": "IN",
    "iso3": "IND",
    "admin_name": "Assam",
    "capital": "",
    "population": 1116267,
    "id": 1356593800
  },
  {
    "city": "Ufa",
    "city_ascii": "Ufa",
    "lat": 54.7261,
    "lng": 55.9475,
    "country": "Russia",
    "iso2": "RU",
    "iso3": "RUS",
    "admin_name": "Bashkortostan",
    "capital": "admin",
    "population": 1115560,
    "id": 1643722928
  },
  {
    "city": "Fès",
    "city_ascii": "Fes",
    "lat": 34.0433,
    "lng": -5.0033,
    "country": "Morocco",
    "iso2": "MA",
    "iso3": "MAR",
    "admin_name": "Fès-Meknès",
    "capital": "admin",
    "population": 1112072,
    "id": 1504861997
  },
  {
    "city": "Mwanza",
    "city_ascii": "Mwanza",
    "lat": -2.5167,
    "lng": 32.9,
    "country": "Tanzania",
    "iso2": "TZ",
    "iso3": "TZA",
    "admin_name": "Mwanza",
    "capital": "admin",
    "population": 1104521,
    "id": 1834011288
  },
  {
    "city": "Biên Hòa",
    "city_ascii": "Bien Hoa",
    "lat": 10.95,
    "lng": 106.8167,
    "country": "Vietnam",
    "iso2": "VN",
    "iso3": "VNM",
    "admin_name": "Đồng Nai",
    "capital": "admin",
    "population": 1104000,
    "id": 1704863046
  },
  {
    "city": "Sevilla",
    "city_ascii": "Sevilla",
    "lat": 37.39,
    "lng": -5.99,
    "country": "Spain",
    "iso2": "ES",
    "iso3": "ESP",
    "admin_name": "Andalusia",
    "capital": "admin",
    "population": 1100000,
    "id": 1724991838
  },
  {
    "city": "Ikare",
    "city_ascii": "Ikare",
    "lat": 7.5167,
    "lng": 5.75,
    "country": "Nigeria",
    "iso2": "NG",
    "iso3": "NGA",
    "admin_name": "Ondo",
    "capital": "minor",
    "population": 1099931,
    "id": 1566683694
  },
  {
    "city": "Tamale",
    "city_ascii": "Tamale",
    "lat": 9.4075,
    "lng": -0.8533,
    "country": "Ghana",
    "iso2": "GH",
    "iso3": "GHA",
    "admin_name": "Northern",
    "capital": "admin",
    "population": 1095808,
    "id": 1288890688
  },
  {
    "city": "N’Djamena",
    "city_ascii": "N'Djamena",
    "lat": 12.11,
    "lng": 15.05,
    "country": "Chad",
    "iso2": "TD",
    "iso3": "TCD",
    "admin_name": "N’Djamena",
    "capital": "primary",
    "population": 1092066,
    "id": 1148708596
  },
  {
    "city": "Cologne",
    "city_ascii": "Cologne",
    "lat": 50.9364,
    "lng": 6.9528,
    "country": "Germany",
    "iso2": "DE",
    "iso3": "DEU",
    "admin_name": "North Rhine-Westphalia",
    "capital": "",
    "population": 1084831,
    "id": 1276015998
  },
  {
    "city": "Krasnoyarsk",
    "city_ascii": "Krasnoyarsk",
    "lat": 56.0089,
    "lng": 92.8719,
    "country": "Russia",
    "iso2": "RU",
    "iso3": "RUS",
    "admin_name": "Krasnoyarskiy Kray",
    "capital": "admin",
    "population": 1083865,
    "id": 1643544975
  },
  {
    "city": "Astana",
    "city_ascii": "Astana",
    "lat": 51.1472,
    "lng": 71.4222,
    "country": "Kazakhstan",
    "iso2": "KZ",
    "iso3": "KAZ",
    "admin_name": "Nur-Sultan",
    "capital": "primary",
    "population": 1078362,
    "id": 1398516045
  },
  {
    "city": "Nouakchott",
    "city_ascii": "Nouakchott",
    "lat": 18.0858,
    "lng": -15.9785,
    "country": "Mauritania",
    "iso2": "MR",
    "iso3": "MRT",
    "admin_name": "Nouakchott Ouest",
    "capital": "primary",
    "population": 1077169,
    "id": 1478414984
  },
  {
    "city": "Yerevan",
    "city_ascii": "Yerevan",
    "lat": 40.1814,
    "lng": 44.5144,
    "country": "Armenia",
    "iso2": "AM",
    "iso3": "ARM",
    "admin_name": "Yerevan",
    "capital": "primary",
    "population": 1075800,
    "id": 1051074169
  },
  {
    "city": "Oslo",
    "city_ascii": "Oslo",
    "lat": 59.9133,
    "lng": 10.7389,
    "country": "Norway",
    "iso2": "NO",
    "iso3": "NOR",
    "admin_name": "Oslo",
    "capital": "primary",
    "population": 1064235,
    "id": 1578324706
  },
  {
    "city": "Sendai",
    "city_ascii": "Sendai",
    "lat": 38.2682,
    "lng": 140.8694,
    "country": "Japan",
    "iso2": "JP",
    "iso3": "JPN",
    "admin_name": "Miyagi",
    "capital": "admin",
    "population": 1061177,
    "id": 1392457903
  },
  {
    "city": "Barquisimeto",
    "city_ascii": "Barquisimeto",
    "lat": 10.0636,
    "lng": -69.3347,
    "country": "Venezuela",
    "iso2": "VE",
    "iso3": "VEN",
    "admin_name": "Lara",
    "capital": "admin",
    "population": 1059092,
    "id": 1862860739
  },
  {
    "city": "Chandīgarh",
    "city_ascii": "Chandigarh",
    "lat": 30.75,
    "lng": 76.78,
    "country": "India",
    "iso2": "IN",
    "iso3": "IND",
    "admin_name": "Chandīgarh",
    "capital": "admin",
    "population": 1055450,
    "id": 1356739179
  },
  {
    "city": "Voronezh",
    "city_ascii": "Voronezh",
    "lat": 51.6717,
    "lng": 39.2106,
    "country": "Russia",
    "iso2": "RU",
    "iso3": "RUS",
    "admin_name": "Voronezhskaya Oblast’",
    "capital": "admin",
    "population": 1051995,
    "id": 1643811064
  },
  {
    "city": "Managua",
    "city_ascii": "Managua",
    "lat": 12.1364,
    "lng": -86.2514,
    "country": "Nicaragua",
    "iso2": "NI",
    "iso3": "NIC",
    "admin_name": "Managua",
    "capital": "primary",
    "population": 1051236,
    "id": 1558296252
  },
  {
    "city": "Haldwāni",
    "city_ascii": "Haldwani",
    "lat": 29.22,
    "lng": 79.52,
    "country": "India",
    "iso2": "IN",
    "iso3": "IND",
    "admin_name": "Uttarākhand",
    "capital": "",
    "population": 1050000,
    "id": 1356040854
  },
  {
    "city": "Perm",
    "city_ascii": "Perm",
    "lat": 58,
    "lng": 56.3167,
    "country": "Russia",
    "iso2": "RU",
    "iso3": "RUS",
    "admin_name": "Permskiy Kray",
    "capital": "admin",
    "population": 1048005,
    "id": 1643294442
  },
  {
    "city": "Kisangani",
    "city_ascii": "Kisangani",
    "lat": 0.5167,
    "lng": 25.2,
    "country": "Congo (Kinshasa)",
    "iso2": "CD",
    "iso3": "COD",
    "admin_name": "Tshopo",
    "capital": "admin",
    "population": 1040000,
    "id": 1180478201
  }
]