[
  {
    "city": "Mumias",
    "city_ascii": "Mumias",
    "lat": 0.3333,
    "lng": 34.4833,
    "country": "Kenya",
    "iso2": "KE",
    "iso3": "KEN",
    "admin_name": "Kakamega",
    "capital": "",
    "population": 99987,
    "id": 1404232773
  },
  {
    "city": "Songea",
    "city_ascii": "Songea",
    "lat": -10.6833,
    "lng": 35.65,
    "country": "Tanzania",
    "iso2": "TZ",
    "iso3": "TZA",
    "admin_name": "Ruvuma",
    "capital": "admin",
    "population": 99961,
    "id": 1834461509
  },
  {
    "city": "Pouytenga",
    "city_ascii": "Pouytenga",
    "lat": 12.25,
    "lng": -0.4333,
    "country": "Burkina Faso",
    "iso2": "BF",
    "iso3": "BFA",
    "admin_name": "Centre-Est",
    "capital": "",
    "population": 99950,
    "id": 1854151910
  },
  {
    "city": "Sololá",
    "city_ascii": "Solola",
    "lat": 14.7667,
    "lng": -91.1833,
    "country": "Guatemala",
    "iso2": "GT",
    "iso3": "GTM",
    "admin_name": "Sololá",
    "capital": "admin",
    "population": 99934,
    "id": 1320747500
  },
  {
    "city": "Dunedin",
    "city_ascii": "Dunedin",
    "lat": -45.8742,
    "lng": 170.5036,
    "country": "New Zealand",
    "iso2": "NZ",
    "iso3": "NZL",
    "admin_name": "Otago",
    "capital": "admin",
    "population": 99885,
    "id": 1554475997
  },
  {
    "city": "Sundsvall",
    "city_ascii": "Sundsvall",
    "lat": 62.4,
    "lng": 17.3167,
    "country": "Sweden",
    "iso2": "SE",
    "iso3": "SWE",
    "admin_name": "Västernorrland",
    "capital": "minor",
    "population": 99825,
    "id": 1752024232
  },
  {
    "city": "Hualien",
    "city_ascii": "Hualien",
    "lat": 23.9722,
    "lng": 121.6064,
    "country": "Taiwan",
    "iso2": "TW",
    "iso3": "TWN",
    "admin_name": "Hualien",
    "capital": "admin",
    "population": 99458,
    "id": 1158174293
  },
  {
    "city": "Jinotega",
    "city_ascii": "Jinotega",
    "lat": 13.0884,
    "lng": -85.9994,
    "country": "Nicaragua",
    "iso2": "NI",
    "iso3": "NIC",
    "admin_name": "Jinotega",
    "capital": "admin",
    "population": 99382,
    "id": 1558697688
  },
  {
    "city": "Bislig",
    "city_ascii": "Bislig",
    "lat": 8.2133,
    "lng": 126.3161,
    "country": "Philippines",
    "iso2": "PH",
    "iso3": "PHL",
    "admin_name": "Surigao del Sur",
    "capital": "",
    "population": 99290,
    "id": 1608693408
  },
  {
    "city": "Viseu",
    "city_ascii": "Viseu",
    "lat": 40.6667,
    "lng": -7.9167,
    "country": "Portugal",
    "iso2": "PT",
    "iso3": "PRT",
    "admin_name": "Viseu",
    "capital": "admin",
    "population": 99274,
    "id": 1620291266
  },
  {
    "city": "Wakefield",
    "city_ascii": "Wakefield",
    "lat": 53.6825,
    "lng": -1.4975,
    "country": "United Kingdom",
    "iso2": "GB",
    "iso3": "GBR",
    "admin_name": "Wakefield",
    "capital": "",
    "population": 99251,
    "id": 1826013112
  },
  {
    "city": "Sisophon",
    "city_ascii": "Sisophon",
    "lat": 13.5833,
    "lng": 102.9833,
    "country": "Cambodia",
    "iso2": "KH",
    "iso3": "KHM",
    "admin_name": "Banteay Meanchey",
    "capital": "admin",
    "population": 99019,
    "id": 1116276411
  },
  {
    "city": "Nyeri",
    "city_ascii": "Nyeri",
    "lat": -0.4167,
    "lng": 36.95,
    "country": "Kenya",
    "iso2": "KE",
    "iso3": "KEN",
    "admin_name": "Nyeri",
    "capital": "admin",
    "population": 98908,
    "id": 1404924901
  },
  {
    "city": "Sopron",
    "city_ascii": "Sopron",
    "lat": 47.6849,
    "lng": 16.5831,
    "country": "Hungary",
    "iso2": "HU",
    "iso3": "HUN",
    "admin_name": "Sopron",
    "capital": "admin",
    "population": 98479,
    "id": 1348988570
  },
  {
    "city": "Ancona",
    "city_ascii": "Ancona",
    "lat": 43.6169,
    "lng": 13.5167,
    "country": "Italy",
    "iso2": "IT",
    "iso3": "ITA",
    "admin_name": "Marche",
    "capital": "admin",
    "population": 98356,
    "id": 1380597324
  },
  {
    "city": "Río Grande",
    "city_ascii": "Rio Grande",
    "lat": -53.7833,
    "lng": -67.7,
    "country": "Argentina",
    "iso2": "AR",
    "iso3": "ARG",
    "admin_name": "Tierra del Fuego, Antártida e Islas del Atlántico Sur",
    "capital": "minor",
    "population": 98017,
    "id": 1032824067
  },
  {
    "city": "Bălţi",
    "city_ascii": "Balti",
    "lat": 47.7667,
    "lng": 27.9167,
    "country": "Moldova",
    "iso2": "MD",
    "iso3": "MDA",
    "admin_name": "Bălţi",
    "capital": "admin",
    "population": 97930,
    "id": 1498172131
  },
  {
    "city": "Smederevo",
    "city_ascii": "Smederevo",
    "lat": 44.6667,
    "lng": 20.9333,
    "country": "Serbia",
    "iso2": "RS",
    "iso3": "SRB",
    "admin_name": "Smederevo",
    "capital": "admin",
    "population": 97930,
    "id": 1688344019
  },
  {
    "city": "Montego Bay",
    "city_ascii": "Montego Bay",
    "lat": 18.4667,
    "lng": -77.9167,
    "country": "Jamaica",
    "iso2": "JM",
    "iso3": "JAM",
    "admin_name": "Saint James",
    "capital": "admin",
    "population": 97890,
    "id": 1388955058
  },
  {
    "city": "Catarman",
    "city_ascii": "Catarman",
    "lat": 12.4994,
    "lng": 124.6328,
    "country": "Philippines",
    "iso2": "PH",
    "iso3": "PHL",
    "admin_name": "Northern Samar",
    "capital": "admin",
    "population": 97879,
    "id": 1608432162
  },
  {
    "city": "Janakpur",
    "city_ascii": "Janakpur",
    "lat": 26.7286,
    "lng": 85.925,
    "country": "Nepal",
    "iso2": "NP",
    "iso3": "NPL",
    "admin_name": "Madhesh",
    "capital": "admin",
    "population": 97776,
    "id": 1524563587
  },
  {
    "city": "Gambēla",
    "city_ascii": "Gambela",
    "lat": 8.25,
    "lng": 34.5833,
    "country": "Ethiopia",
    "iso2": "ET",
    "iso3": "ETH",
    "admin_name": "Gambēla Hizboch",
    "capital": "admin",
    "population": 97643,
    "id": 1231698892
  },
  {
    "city": "Radès",
    "city_ascii": "Rades",
    "lat": 36.7667,
    "lng": 10.2833,
    "country": "Tunisia",
    "iso2": "TN",
    "iso3": "TUN",
    "admin_name": "Ben Arous",
    "capital": "",
    "population": 97588,
    "id": 1788930929
  },
  {
    "city": "Hammamet",
    "city_ascii": "Hammamet",
    "lat": 36.4,
    "lng": 10.6167,
    "country": "Tunisia",
    "iso2": "TN",
    "iso3": "TUN",
    "admin_name": "Nabeul",
    "capital": "",
    "population": 97579,
    "id": 1788426798
  },
  {
    "city": "Tartu",
    "city_ascii": "Tartu",
    "lat": 58.3833,
    "lng": 26.7167,
    "country": "Estonia",
    "iso2": "EE",
    "iso3": "EST",
    "admin_name": "Tartu",
    "capital": "admin",
    "population": 97524,
    "id": 1233809410
  },
  {
    "city": "Pernik",
    "city_ascii": "Pernik",
    "lat": 42.6,
    "lng": 23.0333,
    "country": "Bulgaria",
    "iso2": "BG",
    "iso3": "BGR",
    "admin_name": "Pernik",
    "capital": "admin",
    "population": 97181,
    "id": 1100616332
  },
  {
    "city": "Maribor",
    "city_ascii": "Maribor",
    "lat": 46.5575,
    "lng": 15.6456,
    "country": "Slovenia",
    "iso2": "SI",
    "iso3": "SVN",
    "admin_name": "Maribor",
    "capital": "admin",
    "population": 97019,
    "id": 1705454394
  },
  {
    "city": "Gävle",
    "city_ascii": "Gavle",
    "lat": 60.6747,
    "lng": 17.1417,
    "country": "Sweden",
    "iso2": "SE",
    "iso3": "SWE",
    "admin_name": "Gävleborg",
    "capital": "admin",
    "population": 96969,
    "id": 1752586931
  },
  {
    "city": "Tumbes",
    "city_ascii": "Tumbes",
    "lat": -3.5708,
    "lng": -80.4597,
    "country": "Peru",
    "iso2": "PE",
    "iso3": "PER",
    "admin_name": "Tumbes",
    "capital": "admin",
    "population": 96946,
    "id": 1604505281
  },
  {
    "city": "Paletwa",
    "city_ascii": "Paletwa",
    "lat": 21.3,
    "lng": 92.85,
    "country": "Burma",
    "iso2": "MM",
    "iso3": "MMR",
    "admin_name": "Chin State",
    "capital": "",
    "population": 96899,
    "id": 1104846794
  },
  {
    "city": "Arauca",
    "city_ascii": "Arauca",
    "lat": 7.0903,
    "lng": -70.7617,
    "country": "Colombia",
    "iso2": "CO",
    "iso3": "COL",
    "admin_name": "Arauca",
    "capital": "admin",
    "population": 96814,
    "id": 1170322340
  },
  {
    "city": "Oldham",
    "city_ascii": "Oldham",
    "lat": 53.5444,
    "lng": -2.1169,
    "country": "United Kingdom",
    "iso2": "GB",
    "iso3": "GBR",
    "admin_name": "Oldham",
    "capital": "",
    "population": 96555,
    "id": 1826716070
  },
  {
    "city": "Half Way Tree",
    "city_ascii": "Half Way Tree",
    "lat": 18.0106,
    "lng": -76.7847,
    "country": "Jamaica",
    "iso2": "JM",
    "iso3": "JAM",
    "admin_name": "Saint Andrew",
    "capital": "admin",
    "population": 96494,
    "id": 1388715163
  },
  {
    "city": "Pejë",
    "city_ascii": "Peje",
    "lat": 42.6603,
    "lng": 20.2917,
    "country": "Kosovo",
    "iso2": "XK",
    "iso3": "XKS",
    "admin_name": "Pejë",
    "capital": "admin",
    "population": 96450,
    "id": 1901339694
  },
  {
    "city": "České Budějovice",
    "city_ascii": "Ceske Budejovice",
    "lat": 48.9747,
    "lng": 14.4747,
    "country": "Czechia",
    "iso2": "CZ",
    "iso3": "CZE",
    "admin_name": "Jihočeský Kraj",
    "capital": "admin",
    "population": 96417,
    "id": 1203398046
  },
  {
    "city": "Osijek",
    "city_ascii": "Osijek",
    "lat": 45.5556,
    "lng": 18.6944,
    "country": "Croatia",
    "iso2": "HR",
    "iso3": "HRV",
    "admin_name": "Osječko-Baranjska Županija",
    "capital": "admin",
    "population": 96313,
    "id": 1191917921
  },
  {
    "city": "Chārīkār",
    "city_ascii": "Charikar",
    "lat": 35.0131,
    "lng": 69.1689,
    "country": "Afghanistan",
    "iso2": "AF",
    "iso3": "AFG",
    "admin_name": "Parwān",
    "capital": "admin",
    "population": 96093,
    "id": 1004817775
  },
  {
    "city": "Hammersmith",
    "city_ascii": "Hammersmith",
    "lat": 51.4928,
    "lng": -0.2229,
    "country": "United Kingdom",
    "iso2": "GB",
    "iso3": "GBR",
    "admin_name": "Hammersmith and Fulham",
    "capital": "",
    "population": 95996,
    "id": 1826090130
  },
  {
    "city": "Tataouine",
    "city_ascii": "Tataouine",
    "lat": 32.9306,
    "lng": 10.45,
    "country": "Tunisia",
    "iso2": "TN",
    "iso3": "TUN",
    "admin_name": "Tataouine",
    "capital": "admin",
    "population": 95775,
    "id": 1788300169
  },
  {
    "city": "Burdur",
    "city_ascii": "Burdur",
    "lat": 37.7194,
    "lng": 30.2833,
    "country": "Turkey",
    "iso2": "TR",
    "iso3": "TUR",
    "admin_name": "Burdur",
    "capital": "admin",
    "population": 95436,
    "id": 1792413556
  },
  {
    "city": "Labuan",
    "city_ascii": "Labuan",
    "lat": 5.3,
    "lng": 115.22,
    "country": "Malaysia",
    "iso2": "MY",
    "iso3": "MYS",
    "admin_name": "Labuan",
    "capital": "admin",
    "population": 95120,
    "id": 1458460967
  },
  {
    "city": "Naxçıvan",
    "city_ascii": "Naxcivan",
    "lat": 39.2161,
    "lng": 45.4106,
    "country": "Azerbaijan",
    "iso2": "AZ",
    "iso3": "AZE",
    "admin_name": "Naxçıvan",
    "capital": "admin",
    "population": 95100,
    "id": 1031943755
  },
  {
    "city": "Hemel Hempstead",
    "city_ascii": "Hemel Hempstead",
    "lat": 51.7526,
    "lng": -0.4692,
    "country": "United Kingdom",
    "iso2": "GB",
    "iso3": "GBR",
    "admin_name": "Hertfordshire",
    "capital": "",
    "population": 94932,
    "id": 1826374836
  },
  {
    "city": "Bath",
    "city_ascii": "Bath",
    "lat": 51.38,
    "lng": -2.36,
    "country": "United Kingdom",
    "iso2": "GB",
    "iso3": "GBR",
    "admin_name": "Bath and North East Somerset",
    "capital": "",
    "population": 94782,
    "id": 1826611282
  },
  {
    "city": "Gjakovë",
    "city_ascii": "Gjakove",
    "lat": 42.3833,
    "lng": 20.4333,
    "country": "Kosovo",
    "iso2": "XK",
    "iso3": "XKS",
    "admin_name": "Gjakovë",
    "capital": "admin",
    "population": 94556,
    "id": 1901089874
  },
  {
    "city": "Gatchina",
    "city_ascii": "Gatchina",
    "lat": 59.5833,
    "lng": 30.1333,
    "country": "Russia",
    "iso2": "RU",
    "iso3": "RUS",
    "admin_name": "Leningradskaya Oblast’",
    "capital": "admin",
    "population": 94447,
    "id": 1643318154
  },
  {
    "city": "Monkayo",
    "city_ascii": "Monkayo",
    "lat": 7.8239,
    "lng": 126.0536,
    "country": "Philippines",
    "iso2": "PH",
    "iso3": "PHL",
    "admin_name": "Davao de Oro",
    "capital": "minor",
    "population": 93937,
    "id": 1608856677
  },
  {
    "city": "Hayes",
    "city_ascii": "Hayes",
    "lat": 51.5127,
    "lng": -0.4211,
    "country": "United Kingdom",
    "iso2": "GB",
    "iso3": "GBR",
    "admin_name": "Hillingdon",
    "capital": "",
    "population": 93928,
    "id": 1826539158
  },
  {
    "city": "Qormi",
    "city_ascii": "Qormi",
    "lat": 35.8794,
    "lng": 14.4722,
    "country": "Malta",
    "iso2": "MT",
    "iso3": "MLT",
    "admin_name": "Qormi",
    "capital": "admin",
    "population": 93897,
    "id": 1470879234
  },
  {
    "city": "Đông Hà",
    "city_ascii": "Dong Ha",
    "lat": 16.8303,
    "lng": 107.0972,
    "country": "Vietnam",
    "iso2": "VN",
    "iso3": "VNM",
    "admin_name": "Quảng Trị",
    "capital": "admin",
    "population": 93800,
    "id": 1704264596
  }
]